"NAME","Latitude","Longitude","Poverty","Labor Force","Housing Characteristics","Population Composition","Personal Disruption","Housing Disruption","Retiree Migration","Urban Sprawl","Commercial Engagement","Commercial Reliance","Recreational Engagement","Recreational Reliance","Sea Level Rise Risk","Storm Surge Risk","Poverty Categorical Ranking","Labor Force Categorical Ranking","Housing Characteristics Categorical Ranking","Population Composition Categorical Ranking","Personal Disruption Categorical Ranking","Housing Disruption Categorical Ranking","Retiree Migration Categorical Ranking","Urban Sprawl Categorical Ranking","Commercial Engagement Categorical Ranking","Commercial Reliance Categorical Ranking","Recreational Engagement Categorical Ranking","Recreational Reliance Categorical Ranking","Sea Level Rise Risk Categorical Ranking","Storm Surge Risk Categorical Ranking"
"San Fernando",34.2886519,-118.4362413,"0.404","-0.329","-0.049","1.927","0.683","1.306","-0.754","1.048","-0.157","-0.088","N/A","N/A","-0.309","N/A",2,1,1,4,3,4,1,4,1,1,0,0,1,0
"Cloverdale",38.7959624,-123.01537,"-0.333","-0.407","-0.038","0.199","-0.247","0.063","-0.15","0.295","-0.157","-0.088","N/A","N/A","-0.309","N/A",1,1,1,2,1,2,1,2,1,1,0,0,1,0
"Cotati",38.328492,-122.7100491,"-0.28","-0.904","-0.257","0.099","-0.35","-0.105","-0.788","0.713","-0.153","-0.088","N/A","N/A","-0.309","N/A",1,1,1,2,1,1,1,3,1,1,0,0,1,0
"San Buenaventura (Ventura)",34.2677796,-119.2542062,"-0.254","-0.3","-0.376","0.281","-0.207","0.287","-0.291","0.927","3.027","-0.062","N/A","N/A","-0.288","N/A",1,1,1,2,1,2,1,3,4,1,0,0,1,0
"Glendora",34.1449667,-117.8476672,"-0.227","-0.279","-0.568","0.433","-0.153","0.797","-0.296","0.695","-0.157","-0.088","N/A","N/A","-0.309","N/A",1,1,1,2,1,3,1,3,1,1,0,0,1,0
"Hawthorne",33.9147753,-118.3480828,"0.504","-0.933","0.113","1.945","0.635","1.406","-1.206","1.723","-0.157","-0.088","N/A","N/A","-0.309","N/A",3,1,2,4,3,4,1,4,1,1,0,0,1,0
"Inglewood",33.9560678,-118.3442743,"0.812","-0.621","0.048","1.976","0.924","0.811","-0.776","1.412","-0.157","-0.088","N/A","N/A","-0.309","N/A",3,1,2,4,3,3,1,4,1,1,0,0,1,0
"La Cañada Flintridge",34.2109111,-118.2001349,"-0.8","-0.051","-2.495","0.031","-0.964","0.443","-0.111","1.78","-0.157","-0.088","N/A","N/A","-0.309","N/A",1,1,1,2,1,2,1,4,1,1,0,0,1,0
"La Mirada",33.9020453,-118.0089608,"-0.333","0.084","-0.541","0.816","-0.32","0.606","0.118","0.977","-0.157","-0.088","N/A","N/A","-0.309","N/A",1,2,1,3,1,3,2,3,1,1,0,0,1,0
"Palmdale",34.5910383,-118.1054031,"0.613","-0.011","-0.102","1.537","0.853","0.131","-0.633","0.222","-0.157","-0.088","N/A","N/A","-0.309","N/A",3,1,1,4,3,2,1,2,1,1,0,0,1,0
"Palos Verdes Estates",33.7865188,-118.3949114,"-0.684","0.751","-2.269","-0.24","-0.969","-0.601","0.618","2.182","-0.157","-0.088","N/A","N/A","-0.298","N/A",1,3,1,1,1,1,3,4,1,1,0,0,1,0
"Rolling Hills",33.7600181,-118.3471648,"-0.95","1.423","-1.063","-0.531","-0.859","-1.013","1.116","2.356","-0.157","-0.088","N/A","N/A","-0.309","N/A",1,4,1,1,1,1,4,4,1,1,0,0,1,0
"Santa Clarita",34.4140833,-118.4947294,"-0.344","-0.67","-0.751","0.445","-0.256","0.247","-0.781","0.703","-0.157","-0.088","N/A","N/A","-0.309","N/A",1,1,1,2,1,2,1,3,1,1,0,0,1,0
"Santa Fe Springs",33.9335648,-118.0626113,"0.415","-0.007","-0.161","1.548","-0.018","1.197","-0.228","0.57","-0.157","-0.088","N/A","N/A","-0.309","N/A",2,1,1,4,1,4,1,3,1,1,0,0,1,0
"Vernon",34.001123,-118.2108689,"-0.953","-1.214","1.003","2.082","-0.725","N/A","-1.55","0.625","-0.157","-0.088","N/A","N/A","-0.309","N/A",1,1,4,4,1,0,1,3,1,1,0,0,1,0
"Walnut",34.0371955,-117.8556059,"-0.463","0.021","-1.442","1.382","-0.598","0.856","0.011","1.009","-0.157","-0.088","N/A","N/A","-0.309","N/A",1,2,1,4,1,3,2,4,1,1,0,0,1,0
"Sierra Madre",34.1687705,-118.0502158,"-0.538","-0.222","-0.99","-0.31","-0.615","1.233","-0.294","1.349","-0.157","-0.088","N/A","N/A","-0.309","N/A",1,1,1,1,1,4,1,4,1,1,0,0,1,0
"South Pasadena",34.1089567,-118.1566154,"-0.427","-1.007","-1.073","0.407","-0.62","1.227","-0.977","1.751","-0.157","-0.088","N/A","N/A","-0.309","N/A",1,1,1,2,1,4,1,4,1,1,0,0,1,0
"Calabasas",34.134015,-118.669128,"-0.612","-0.483","-1.866","-0.204","-0.623","0.188","-0.712","1.198","-0.157","-0.088","N/A","N/A","-0.309","N/A",1,1,1,1,1,2,1,4,1,1,0,0,1,0
"Rolling Hills Estates",33.7616102,-118.3930341,"-0.746","0.73","-2.746","-0.193","-0.881","-0.263","0.674","1.731","-0.157","-0.088","N/A","N/A","-0.309","N/A",1,3,1,1,1,1,3,4,1,1,0,0,1,0
"Benicia",38.0691473,-122.1511998,"-0.349","-0.477","-0.654","-0.157","-0.629","-0.311","-0.036","0.605","-0.149","-0.088","N/A","N/A","-0.056","N/A",1,1,1,1,1,1,1,3,1,1,0,0,1,0
"Dixon",38.447512,-121.8242225,"-0.083","-0.651","-0.296","0.709","0.365","-0.43","-0.612","0.334","-0.157","-0.088","N/A","N/A","-0.309","N/A",1,1,1,3,2,1,1,2,1,1,0,0,1,0
"Rio Vista",38.1751526,-121.708586,"-0.054","1.715","-0.189","-0.794","-0.394","-0.124","2.046","0.145","-0.157","-0.088","N/A","N/A","-0.309","N/A",1,4,1,1,1,1,4,2,1,1,0,0,1,0
"Lynwood",33.9239617,-118.2016475,"1.097","-0.115","0.116","2.42","1.389","0.868","-0.95","1.493","-0.157","-0.088","N/A","N/A","-0.309","N/A",4,1,2,4,4,3,1,4,1,1,0,0,1,0
"Suisun City",38.2483339,-122.0100659,"-0.227","-0.595","-0.49","0.905","-0.147","-0.267","-0.644","0.729","-0.157","-0.088","N/A","N/A","0.225","N/A",1,1,1,3,1,1,1,3,1,1,0,0,2,0
"Moorpark",34.285943,-118.8762626,"-0.708","-0.833","-1.135","0.145","-0.575","0.203","-0.779","0.771","-0.157","-0.088","N/A","N/A","-0.309","N/A",1,1,1,2,1,2,1,3,1,1,0,0,1,0
"Rohnert Park",38.3482133,-122.6988818,"-0.345","-0.734","-0.163","0.409","-0.154","-0.741","-0.743","0.796","-0.157","-0.088","N/A","N/A","-0.309","N/A",1,1,1,2,1,1,1,3,1,1,0,0,1,0
"Sebastopol",38.3999838,-122.8277275,"-0.137","-0.288","-0.264","-0.518","-0.199","0.295","-0.114","0.944","-0.157","-0.088","N/A","N/A","-0.309","N/A",1,1,1,1,1,2,1,3,1,1,0,0,1,0
"Sonoma",38.2903313,-122.459831,"-0.078","0.163","-0.659","-0.642","-0.367","0.5","0.465","1.05","-0.153","-0.088","N/A","N/A","-0.309","N/A",1,2,1,1,1,3,2,4,1,1,0,0,1,0
"Camarillo",34.2218233,-119.0321535,"-0.419","-0.181","-0.87","-0.007","-0.591","0.476","0.085","0.816","-0.138","-0.088","N/A","N/A","-0.309","N/A",1,1,1,1,1,2,2,3,1,1,0,0,1,0
"Fillmore",34.3984228,-118.916096,"0.008","-0.277","-0.214","1.21","0.25","1.082","-0.37","0.517","-0.157","-0.088","N/A","N/A","-0.309","N/A",2,1,1,4,2,4,1,3,1,1,0,0,1,0
"Oxnard",34.1988343,-119.201293,"0.274","-0.542","-0.274","1.915","0.383","0.358","-0.647","0.975","1.935","-0.08","N/A","N/A","-0.143","N/A",2,1,1,4,2,2,1,3,4,1,0,0,1,0
"Los Gatos",37.2329763,-121.9510656,"-0.666","-0.311","-1.716","-0.37","-0.751","-0.001","-0.46","2.145","-0.153","-0.088","N/A","N/A","-0.309","N/A",1,1,1,1,1,1,1,4,1,1,0,0,1,0
"Gilroy",37.0064066,-121.5853213,"-0.137","-0.837","-0.922","1.148","0.001","-0.308","-0.839","0.752","-0.153","-0.088","N/A","N/A","-0.309","N/A",1,1,1,4,2,1,1,3,1,1,0,0,1,0
"Saratoga",37.2682116,-122.0263706,"-0.653","0.344","-2.457","0.108","-0.873","-0.409","0.125","2.63","-0.157","-0.088","N/A","N/A","-0.309","N/A",1,2,1,2,1,1,2,4,1,1,0,0,1,0
"Baldwin Park",34.0828245,-117.9712858,"0.372","-0.249","-0.066","2.154","0.472","0.901","-0.588","1.235","-0.157","-0.088","N/A","N/A","-0.309","N/A",2,1,1,4,2,3,1,4,1,1,0,0,1,0
"Beverly Hills",34.07923,-118.4024374,"-0.177","-0.015","-1.393","-0.293","-0.445","-0.65","-0.413","3.194","-0.157","-0.088","N/A","N/A","-0.309","N/A",1,1,1,1,1,1,1,4,1,1,0,0,1,0
"Glendale",34.1813929,-118.2458301,"0.51","-0.313","-0.454","1.008","0.074","0.533","-0.684","1.463","-0.157","-0.088","N/A","N/A","-0.309","N/A",3,1,1,4,2,3,1,4,1,1,0,0,1,0
"La Puente",34.0323333,-117.9535204,"0.758","-0.233","-0.09","2.289","0.834","0.94","-0.455","1.22","-0.157","-0.088","N/A","N/A","-0.309","N/A",3,1,1,4,3,3,1,4,1,1,0,0,1,0
"Los Angeles",34.0193936,-118.4108248,"0.753","-0.594","-0.185","1.306","0.602","1.515","-0.953","1.352","4.233","-0.087","N/A","N/A","-0.086","N/A",3,1,1,4,3,4,1,4,4,1,0,0,1,0
"Paramount",33.8988835,-118.1666294,"0.854","-0.517","0.317","2.126","0.894","0.11","-1.082","1.216","-0.157","-0.088","N/A","N/A","-0.309","N/A",3,1,2,4,3,2,1,4,1,1,0,0,1,0
"Temple City",34.1021588,-118.0579488,"0.088","0","-0.532","1.629","-0.268","2.174","-0.269","1.459","-0.157","-0.088","N/A","N/A","-0.309","N/A",2,1,1,4,1,4,1,4,1,1,0,0,1,0
"Campbell",37.2802323,-121.9543517,"-0.485","-1.014","-1.097","0.206","-0.738","0.79","-1.128","1.768","-0.153","-0.088","N/A","N/A","-0.309","N/A",1,1,1,2,1,3,1,4,1,1,0,0,1,0
"Cupertino",37.3193991,-122.0449569,"-0.644","-0.165","-2.094","0.668","-0.784","0.761","-0.738","2.327","-0.157","-0.088","N/A","N/A","-0.309","N/A",1,1,1,3,1,3,1,4,1,1,0,0,1,0
"Los Altos Hills",37.3671776,-122.1390292,"-0.935","0.564","-2.564","-0.526","-1","-1.063","0.536","2.434","-0.157","-0.088","N/A","N/A","-0.309","N/A",1,3,1,1,1,1,3,4,1,1,0,0,1,0
"Monte Sereno",37.2404547,-121.9880928,"-0.999","0.118","-2.381","-0.745","-1.081","-0.916","0.04","2.533","-0.157","-0.088","N/A","N/A","-0.309","N/A",1,2,1,1,1,1,2,4,1,1,0,0,1,0
"Palo Alto",37.3997819,-122.1427757,"-0.578","-0.343","-1.73","0.035","-0.86","0.559","-0.451","2.672","-0.157","-0.088","N/A","N/A","0.701","N/A",1,1,1,2,1,3,1,4,1,1,0,0,3,0
"San Jose",37.2967394,-121.8189089,"-0.23","-0.696","-0.922","1.209","-0.154","0.137","-0.845","1.432","-0.048","-0.088","N/A","N/A","3.967","N/A",1,1,1,4,1,2,1,4,1,1,0,0,4,0
"Port Hueneme",34.1621431,-119.2041771,"-0.041","-0.199","-0.263","1.179","0.113","0.787","-0.416","0.711","1.067","-0.034","N/A","N/A","-0.138","N/A",1,1,1,4,2,3,1,3,4,1,0,0,1,0
"San Bruno",37.6253781,-122.4313573,"-0.583","-0.828","-1.037","0.746","-0.48","0.656","-0.59","1.854","-0.145","-0.088","N/A","N/A","-0.238","N/A",1,1,1,3,1,3,1,4,1,1,0,0,1,0
"Point Arena",38.9123138,-123.6955932,"0.201","-0.79","0.543","0.433","0.373","2.314","-0.05","-0.894","0.443","1.163","N/A","N/A","-0.298","N/A",2,1,3,2,2,4,1,1,2,4,0,0,1,0
"Willits",39.4050065,-123.3488889,"0.904","0.528","0.419","0.037","0.745","-0.174","0.374","-1.174","-0.149","-0.088","N/A","N/A","-0.309","N/A",3,3,2,2,3,1,2,1,1,1,0,0,1,0
"Corte Madera",37.9318458,-122.5077378,"-0.797","-0.845","-1.994","-0.359","-0.802","0.542","-0.633","1.93","-0.157","-0.088","N/A","N/A","1.191","N/A",1,1,1,1,1,3,1,4,1,1,0,0,4,0
"Ross",37.9638151,-122.5615688,"-0.891","0.467","-2.464","-1.041","-0.824","-0.916","0.352","2.852","-0.157","-0.088","N/A","N/A","-0.309","N/A",1,2,1,1,1,1,2,4,1,1,0,0,1,0
"San Anselmo",37.9821217,-122.5699098,"-0.748","-0.8","-1.318","-0.83","-0.684","0.426","-0.398","1.82","-0.157","-0.088","N/A","N/A","-0.309","N/A",1,1,1,1,1,2,1,4,1,1,0,0,1,0
"Mill Valley",37.9081217,-122.5423253,"-0.738","-0.089","-1.845","-0.767","-0.955","-0.161","-0.143","2.254","-0.157","-0.088","N/A","N/A","-0.179","N/A",1,1,1,1,1,1,1,4,1,1,0,0,1,0
"Tiburon",37.887166,-122.458291,"-0.875","0.084","-1.899","-0.829","-1.114","-0.864","0.152","2.769","-0.157","-0.088","N/A","N/A","-0.241","N/A",1,2,1,1,1,1,2,4,1,1,0,0,1,0
"Atherton",37.4570721,-122.2010583,"-0.844","0.577","-3.623","-0.373","-0.943","-0.957","0.217","2.616","-0.157","-0.088","N/A","N/A","-0.309","N/A",1,3,1,1,1,1,2,4,1,1,0,0,1,0
"Brisbane",37.6757495,-122.383302,"-0.512","-0.928","-1.053","0.344","-0.294","1.375","-0.615","1.382","-0.157","-0.088","N/A","N/A","-0.278","N/A",1,1,1,2,1,4,1,4,1,1,0,0,1,0
"Colma",37.67669,-122.4526823,"0.417","-0.905","-0.861","1.239","-0.269","0.495","-0.582","1.083","-0.157","-0.088","N/A","N/A","-0.309","N/A",2,1,1,4,1,2,1,4,1,1,0,0,1,0
"East Palo Alto",37.4677798,-122.1325502,"0.205","-1.127","-0.391","2.064","0.29","1.286","-1.45","1.961","-0.157","-0.088","N/A","N/A","1.001","N/A",2,1,1,4,2,4,1,4,1,1,0,0,4,0
"Foster City",37.56482,-122.2507815,"-0.664","-0.646","-1.771","0.565","-0.836","0.128","-0.788","2.288","-0.157","-0.088","N/A","N/A","6.163","N/A",1,1,1,3,1,2,1,4,1,1,0,0,4,0
"Half Moon Bay",37.467319,-122.4404845,"-0.608","-0.483","-1.221","0.075","-0.856","-0.555","-0.085","1.375","3.872","0.192","N/A","N/A","-0.297","N/A",1,1,1,2,1,1,1,4,4,2,0,0,1,0
"Hillsborough",37.5572415,-122.3586951,"-0.892","0.482","-3.621","-0.292","-0.953","-0.988","0.177","2.659","-0.157","-0.088","N/A","N/A","-0.309","N/A",1,2,1,1,1,1,2,4,1,1,0,0,1,0
"Millbrae",37.5989695,-122.4019908,"-0.589","-0.258","-1.565","0.723","-0.632","0.967","-0.148","2.283","-0.157","-0.088","N/A","N/A","-0.032","N/A",1,1,1,3,1,3,1,4,1,1,0,0,1,0
"Pacifica",37.6065981,-122.4772305,"-0.705","-0.768","-1.252","0.152","-0.682","0.628","-0.325","1.386","-0.149","-0.088","N/A","N/A","-0.304","N/A",1,1,1,2,1,3,1,4,1,1,0,0,1,0
"Belvedere",37.8743657,-122.4716178,"-0.832","1.629","-2.204","-1.088","-1.229","-1.068","0.884","2.862","-0.157","-0.088","N/A","N/A","0.694","N/A",1,4,1,1,1,1,3,4,1,1,0,0,3,0
"San Francisco",37.7272391,-123.0322294,"-0.142","-0.941","-0.813","0.574","-0.279","1.55","-0.928","2.987","2.965","-0.085","N/A","N/A","0.039","N/A",1,1,1,3,1,4,1,4,4,1,0,0,2,0
"Pacific Grove",36.6225766,-121.92643,"-0.548","0.071","-0.668","-0.524","-0.638","0.775","0.323","0.747","-0.141","-0.088","N/A","N/A","-0.284","N/A",1,2,1,1,1,3,2,3,1,1,0,0,1,0
"Menlo Park",37.4797313,-122.1480548,"-0.475","-0.613","-1.578","0.186","-0.623","0.651","-0.813","2.934","-0.157","-0.088","N/A","N/A","2.794","N/A",1,1,1,2,1,3,1,4,1,1,0,0,4,0
"San Mateo",37.5603104,-122.3106003,"-0.415","-0.878","-1.223","0.719","-0.517","0.338","-0.721","2.134","-0.157","-0.088","N/A","N/A","1.211","N/A",1,1,1,3,1,2,1,4,1,1,0,0,4,0
"Portola Valley",37.3650703,-122.2327119,"-1.008","0.833","-2.672","-0.882","-1.058","-1.112","0.757","2.603","-0.157","-0.088","N/A","N/A","-0.309","N/A",1,3,1,1,1,1,3,4,1,1,0,0,1,0
"Lawndale",33.8884221,-118.3531377,"0.331","-0.699","-0.097","1.822","0.439","1.479","-1.112","1.79","-0.157","-0.088","N/A","N/A","-0.309","N/A",2,1,1,4,2,4,1,4,1,1,0,0,1,0
"Vallejo",38.1079211,-122.2639644,"0.291","-0.233","-0.161","1.147","0.367","-0.118","-0.227","0.517","0.156","-0.086","N/A","N/A","0.145","N/A",2,1,1,4,2,1,1,3,2,1,0,0,2,0
"La Habra Heights",33.9589591,-117.9489729,"-0.673","0.508","-2.013","-0.089","-0.532","0.225","0.616","1.097","-0.157","-0.088","N/A","N/A","-0.309","N/A",1,3,1,1,1,2,3,4,1,1,0,0,1,0
"Sunnyvale",37.385797,-122.0263165,"-0.507","-0.867","-1.034","0.862","-0.529","0.344","-1.175","1.928","-0.153","-0.088","N/A","N/A","2.377","N/A",1,1,1,3,1,2,1,4,1,1,0,0,4,0
"Mountain View city",37.399686,-122.0792687,"-0.572","-1.179","-1.1","0.473","-0.64","0.287","-1.356","2.095","-0.157","-0.088","N/A","N/A","0.319","N/A",1,1,1,2,1,2,1,4,1,1,0,0,2,0
"Los Altos",37.3685407,-122.0966404,"-0.761","-0.015","-2.61","-0.229","-1.005","-0.623","-0.129","2.882","-0.157","-0.088","N/A","N/A","-0.309","N/A",1,1,1,1,1,1,1,4,1,1,0,0,1,0
"Santa Clara",37.3646259,-121.967927,"-0.452","-0.779","-1.006","0.749","-0.494","0.875","-1.085","1.696","-0.157","-0.088","N/A","N/A","-0.297","N/A",1,1,1,3,1,3,1,4,1,1,0,0,1,0
"Morgan Hill",37.1324108,-121.6410146,"-0.474","-0.614","-1.093","0.339","-0.453","-0.33","-0.609","1.006","-0.157","-0.088","N/A","N/A","-0.309","N/A",1,1,1,2,1,1,1,4,1,1,0,0,1,0
"Pomona",34.0584937,-117.7610909,"0.867","-0.27","0.015","1.935","1.021","1.098","-0.727","0.824","-0.157","-0.088","N/A","N/A","-0.309","N/A",3,1,2,4,4,4,1,3,1,1,0,0,1,0
"Industry",34.0262321,-117.9403266,"-0.412","-0.587","1.067","1.819","-0.107","N/A","-0.822","0.672","-0.157","-0.088","N/A","N/A","-0.309","N/A",1,1,4,4,1,0,1,3,1,1,0,0,1,0
"Diamond Bar",34.0015725,-117.8176013,"-0.44","-0.279","-1.015","1.311","-0.592","0.81","-0.39","0.949","-0.157","-0.088","N/A","N/A","-0.309","N/A",1,1,1,4,1,3,1,3,1,1,0,0,1,0
"Duarte",34.1609114,-117.9505275,"0.142","-0.169","-0.347","1.186","0.061","1.017","-0.087","0.649","-0.157","-0.088","N/A","N/A","-0.309","N/A",2,1,1,4,2,4,1,3,1,1,0,0,1,0
"Arcadia",34.1326887,-118.0363467,"-0.19","-0.067","-0.988","1.502","-0.481","1.415","-0.281","1.698","-0.157","-0.088","N/A","N/A","-0.309","N/A",1,1,1,4,1,4,1,4,1,1,0,0,1,0
"South El Monte",34.0503775,-118.048384,"0.723","-0.103","0.222","2.423","0.961","1.492","-0.503","0.991","-0.157","-0.088","N/A","N/A","-0.309","N/A",3,1,2,4,3,4,1,3,1,1,0,0,1,0
"Monterey Park",34.0483305,-118.133183,"0.314","0.279","-0.167","2.146","0.053","1.634","0.131","1.299","-0.157","-0.088","N/A","N/A","-0.309","N/A",2,2,1,4,2,4,2,4,1,1,0,0,1,0
"West Hollywood",34.0882673,-118.3718297,"-0.145","-1.508","-0.25","-0.612","-0.294","-0.43","-1.523","2.512","-0.157","-0.088","N/A","N/A","-0.309","N/A",1,1,1,1,1,1,1,4,1,1,0,0,1,0
"West Covina",34.0559412,-117.9099372,"-0.149","-0.354","-0.534","1.424","-0.021","0.861","-0.389","1.017","-0.157","-0.088","N/A","N/A","-0.309","N/A",1,1,1,4,1,3,1,4,1,1,0,0,1,0
"La Verne",34.1205212,-117.7699278,"-0.458","0.078","-0.396","0.196","-0.271","0.265","0.257","0.809","-0.157","-0.088","N/A","N/A","-0.309","N/A",1,2,1,2,1,2,2,3,1,1,0,0,1,0
"Irwindale",34.1119138,-117.9635233,"-0.158","-0.12","0.031","1.893","0.509","0.895","-0.179","0.362","-0.157","-0.088","N/A","N/A","-0.309","N/A",1,1,2,4,3,3,1,2,1,1,0,0,1,0
"San Marino",34.1226714,-118.1129107,"-0.364","0.398","-2.887","0.8","-0.802","0.648","0.143","2.558","-0.157","-0.088","N/A","N/A","-0.309","N/A",1,2,1,3,1,3,2,4,1,1,0,0,1,0
"Burbank city",34.1900793,-118.3264045,"-0.072","-0.62","-0.475","0.389","-0.156","1.369","-0.845","1.278","-0.157","-0.088","N/A","N/A","-0.309","N/A",1,1,1,2,1,4,1,4,1,1,0,0,1,0
"Azusa",34.1385241,-117.912253,"0.419","-0.446","-0.013","1.429","0.343","0.932","-0.795","0.715","-0.157","-0.088","N/A","N/A","-0.309","N/A",2,1,1,4,2,3,1,3,1,1,0,0,1,0
"Westlake Village",34.1366751,-118.8173674,"-0.719","0.425","-1.768","-0.561","-0.893","-0.241","0.531","1.138","-0.157","-0.088","N/A","N/A","-0.309","N/A",1,2,1,1,1,1,3,4,1,1,0,0,1,0
"Fairfax",37.988378,-122.5950965,"-0.689","-0.719","-0.971","-0.507","-0.904","0.206","-0.241","1.495","-0.157","-0.088","N/A","N/A","-0.309","N/A",1,1,1,1,1,2,1,4,1,1,0,0,1,0
"Larkspur",37.9404682,-122.5296051,"-0.607","-0.3","-1.187","-0.611","-0.772","-0.066","-0.113","2.139","-0.157","-0.088","N/A","N/A","0.246","N/A",1,1,1,1,1,1,1,4,1,1,0,0,2,0
"Novato",38.0850865,-122.5482145,"-0.387","-0.319","-1.065","-0.041","-0.576","0.015","-0.1","1.117","-0.145","-0.088","N/A","N/A","2.469","N/A",1,1,1,1,1,2,1,4,1,1,0,0,4,0
"Long Beach",33.8091789,-118.1552902,"0.605","-0.625","0.004","1.077","0.427","0.92","-0.962","1.332","0.398","-0.087","N/A","N/A","0.255","N/A",3,1,2,4,2,3,1,4,2,1,0,0,2,0
"Signal Hill",33.8034309,-118.1697698,"0.04","-0.934","-0.209","0.896","-0.059","0.84","-1.182","0.875","-0.157","-0.088","N/A","N/A","-0.309","N/A",2,1,1,3,1,3,1,3,1,1,0,0,1,0
"Rancho Palos Verdes",33.7531531,-118.3679637,"-0.72","0.394","-2.105","-0.007","-0.887","0.132","0.461","1.563","-0.157","-0.088","N/A","N/A","-0.307","N/A",1,2,1,1,1,2,2,4,1,1,0,0,1,0
"Malibu",34.0342195,-118.7794907,"-0.663","-0.016","-1.696","-0.835","-0.624","-0.974","-0.189","2.43","-0.157","-0.088","N/A","N/A","-0.297","N/A",1,1,1,1,1,1,1,4,1,1,0,0,1,0
"Lancaster",34.693558,-118.1753054,"1.108","0.319","-0.032","1.08","0.725","0.462","-0.52","0.202","-0.157","-0.088","N/A","N/A","-0.309","N/A",4,2,1,4,3,2,1,2,1,1,0,0,1,0
"Alhambra",34.0835711,-118.1364436,"0.291","-0.233","-0.019","1.827","0.001","1.514","-0.505","1.595","-0.157","-0.088","N/A","N/A","-0.309","N/A",2,1,1,4,2,4,1,4,1,1,0,0,1,0
"Rosemead",34.0688796,-118.0826804,"0.466","-0.029","0.049","2.516","0.362","1.888","-0.304","1.43","-0.157","-0.088","N/A","N/A","-0.309","N/A",2,1,2,4,2,4,1,4,1,1,0,0,1,0
"Montebello",34.0154437,-118.1110124,"0.349","-0.097","0.047","1.99","0.555","0.705","-0.385","1.108","-0.157","-0.088","N/A","N/A","-0.309","N/A",2,1,2,4,3,3,1,4,1,1,0,0,1,0
"Gardena",33.8944169,-118.307522,"0.37","-0.219","0.046","1.516","0.309","1.075","-0.418","1.287","-0.157","-0.088","N/A","N/A","-0.309","N/A",2,1,2,4,2,4,1,4,1,1,0,0,1,0
"Lakewood",33.8471353,-118.121894,"-0.435","-0.537","-0.622","0.752","-0.357","0.895","-0.435","1.188","-0.157","-0.088","N/A","N/A","-0.309","N/A",1,1,1,3,1,3,1,4,1,1,0,0,1,0
"Compton",33.8940467,-118.2274687,"1.437","-0.107","0.159","2.28","1.263","0.748","-0.721","0.929","-0.157","-0.088","N/A","N/A","-0.309","N/A",4,1,2,4,4,3,1,3,1,1,0,0,1,0
"San Gabriel",34.0946359,-118.0984687,"-0.032","-0.266","-0.277","2.179","0.101","1.53","-0.559","1.508","-0.157","-0.088","N/A","N/A","-0.309","N/A",1,1,1,4,2,4,1,4,1,1,0,0,1,0
"Norwalk",33.9076003,-118.0834525,"0.229","-0.273","-0.17","1.79","0.301","0.986","-0.585","1.124","-0.153","-0.088","N/A","N/A","-0.309","N/A",2,1,1,4,2,3,1,4,1,1,0,0,1,0
"Downey",33.9382375,-118.1308561,"-0.048","-0.526","-0.281","1.605","0.214","0.942","-0.765","1.242","-0.157","-0.088","N/A","N/A","-0.309","N/A",1,1,1,4,2,3,1,4,1,1,0,0,1,0
"Whittier",33.9668274,-118.0201222,"-0.085","-0.384","-0.287","0.953","-0.12","1.019","-0.483","1.004","-0.157","-0.088","N/A","N/A","-0.309","N/A",1,1,1,3,1,4,1,4,1,1,0,0,1,0
"Pico Rivera",33.9895238,-118.0892952,"0.065","-0.071","-0.07","1.719","0.275","0.711","-0.201","0.85","-0.157","-0.088","N/A","N/A","-0.309","N/A",2,1,1,4,2,3,1,3,1,1,0,0,1,0
"Bell",33.9797042,-118.1792494,"1.278","-0.345","0.324","2.629","1.513","0.493","-1.016","1.574","-0.157","-0.088","N/A","N/A","-0.309","N/A",4,1,2,4,4,2,1,4,1,1,0,0,1,0
"Huntington Park",33.9792475,-118.217438,"1.748","-0.292","0.397","2.9","1.838","0.46","-1.027","1.951","-0.157","-0.088","N/A","N/A","-0.309","N/A",4,1,2,4,4,2,1,4,1,1,0,0,1,0
"South Gate",33.9441585,-118.1927614,"0.906","-0.366","0.21","2.542","1.33","0.609","-0.858","1.398","-0.157","-0.088","N/A","N/A","-0.309","N/A",3,1,2,4,4,3,1,4,1,1,0,0,1,0
"Culver City",34.0058204,-118.3967807,"-0.325","-0.878","-0.609","0.336","-0.604","1.15","-0.862","1.519","-0.157","-0.088","N/A","N/A","-0.308","N/A",1,1,1,2,1,4,1,4,1,1,0,0,1,0
"Capitola",36.9760826,-121.954012,"-0.052","-0.377","-0.235","-0.084","-0.458","-0.036","-0.221","1.488","-0.153","-0.088","N/A","N/A","-0.294","N/A",1,1,1,1,1,1,1,4,1,1,0,0,1,0
"Scotts Valley",37.0554998,-122.0117687,"-0.804","-0.307","-0.997","-0.427","-0.863","-0.295","-0.109","1.256","-0.157","-0.088","N/A","N/A","-0.309","N/A",1,1,1,1,1,1,1,4,1,1,0,0,1,0
"Crescent City",41.7645143,-124.2007785,"2.237","1.499","0.727","0.282","2.124","-0.499","0.53","-1.245","2.887","0.316","N/A","N/A","-0.228","N/A",4,4,3,2,4,1,3,1,4,2,0,0,1,0
"Hayward",37.6286591,-122.1024054,"0.057","-0.598","-0.364","1.556","-0.038","0.539","-0.713","0.827","-0.157","-0.088","N/A","N/A","4.03","N/A",2,1,1,4,1,3,1,3,1,1,0,0,4,0
"Livermore",37.6854667,-121.7625177,"-0.592","-0.886","-1.086","0.069","-0.649","0.249","-0.714","0.989","-0.153","-0.088","N/A","N/A","-0.309","N/A",1,1,1,2,1,2,1,3,1,1,0,0,1,0
"Pleasanton",37.6671852,-121.8812304,"-0.671","-0.518","-1.573","0.085","-0.866","0.093","-0.641","1.205","-0.157","-0.088","N/A","N/A","-0.309","N/A",1,1,1,2,1,2,1,4,1,1,0,0,1,0
"Blue Lake",40.8832008,-123.9947163,"0.054","0.036","0.558","-0.75","0.231","0.674","0.345","-1.252","-0.157","-0.088","N/A","N/A","-0.309","N/A",2,2,3,1,2,3,2,1,1,1,0,0,1,0
"Fortuna",40.5854086,-124.1429042,"0.156","0.187","0.444","-0.146","0.243","0.524","-0.008","-1.359","-0.145","-0.088","N/A","N/A","-0.309","N/A",2,2,2,1,2,3,1,1,1,1,0,0,1,0
"Rio Dell",40.4955909,-124.1149295,"-0.581","0.295","0.56","-0.545","0.524","0.78","-0.074","-1.497","-0.157","-0.088","N/A","N/A","-0.308","N/A",1,2,3,1,3,3,1,1,1,1,0,0,1,0
"Trinidad",41.0577077,-124.143255,"0.566","-0.283","-0.472","-0.689","-0.206","2.486","0.482","-0.963","0.644","2.494","N/A","N/A","-0.239","N/A",3,1,1,1,1,4,2,1,3,4,0,0,1,0
"Ferndale",40.5798913,-124.2619085,"-0.111","0.644","-0.194","-0.859","-0.414","1.348","0.739","-1.298","-0.153","-0.087","N/A","N/A","-0.309","N/A",1,3,1,1,1,4,3,1,1,1,0,0,1,0
"Arcata",40.8622906,-124.0749668,"0.547","-0.505","0.561","-0.65","1.192","0.819","-0.87","-1.147","-0.072","-0.084","N/A","N/A","0.765","N/A",3,1,3,1,4,3,1,1,1,1,0,0,3,0
"Eureka",40.7934006,-124.1552459,"0.569","-0.072","0.365","0.044","0.683","1.443","-0.197","-1.296","2.4","-0.002","N/A","N/A","0.442","N/A",3,1,2,2,3,4,1,1,4,1,0,0,2,0
"Redondo Beach",33.8568174,-118.3771371,"-0.637","-1.007","-1.075","-0.068","-0.674","0.807","-0.963","1.82","0.228","-0.083","N/A","N/A","-0.299","N/A",1,1,1,1,1,3,1,4,2,1,0,0,1,0
"Torrance",33.8349663,-118.3414307,"-0.468","-0.328","-0.625","0.732","-0.565","0.482","-0.354","1.418","-0.157","-0.088","N/A","N/A","-0.309","N/A",1,1,1,3,1,2,1,4,1,1,0,0,1,0
"Belmont",37.5143975,-122.2944751,"-0.779","-0.566","-1.561","0.097","-0.783","0.515","-0.536","2.319","-0.157","-0.088","N/A","N/A","-0.198","N/A",1,1,1,2,1,3,1,4,1,1,0,0,1,0
"Burlingame",37.5899515,-122.3633425,"-0.555","-0.968","-1.34","0.277","-0.663","0.587","-0.9","2.89","-0.157","-0.088","N/A","N/A","0.325","N/A",1,1,1,2,1,3,1,4,1,1,0,0,2,0
"Daly City",37.700835,-122.500791,"-0.322","-0.587","-0.821","1.521","-0.13","0.346","-0.223","2.105","-0.157","-0.088","N/A","N/A","-0.308","N/A",1,1,1,4,1,2,1,4,1,1,0,0,1,0
"San Carlos",37.4954625,-122.2667954,"-0.848","-0.916","-1.686","-0.178","-0.872","0.535","-0.798","2.451","-0.153","-0.088","N/A","N/A","0.129","N/A",1,1,1,1,1,3,1,4,1,1,0,0,2,0
"South San Francisco",37.6551037,-122.3762341,"-0.37","-0.563","-0.809","1.166","-0.394","0.432","-0.22","1.742","-0.104","-0.088","N/A","N/A","0.047","N/A",1,1,1,4,1,2,1,4,1,1,0,0,2,0
"Woodside",37.4221552,-122.2590839,"-0.665","0.243","-2.097","-0.774","-0.873","-1.077","0.022","2.532","-0.157","-0.088","N/A","N/A","-0.309","N/A",1,2,1,1,1,1,2,4,1,1,0,0,1,0
"Brea",33.9251776,-117.8651109,"-0.51","-0.715","-0.734","0.56","-0.397","0.623","-0.653","0.785","-0.157","-0.088","N/A","N/A","-0.309","N/A",1,1,1,3,1,3,1,3,1,1,0,0,1,0
"Irvine",33.6783986,-117.7712541,"-0.216","-0.529","-1.073","0.644","-0.404","1.052","-1.151","1.094","-0.157","-0.088","N/A","N/A","-0.3","N/A",1,1,1,3,1,4,1,4,1,1,0,0,1,0
"La Habra",33.927927,-117.951554,"0.044","-0.577","-0.231","1.381","0.255","0.964","-0.648","1.06","-0.157","-0.088","N/A","N/A","-0.309","N/A",2,1,1,4,2,3,1,4,1,1,0,0,1,0
"Stanton",33.8002548,-117.9934483,"0.673","-0.368","0.161","2.002","0.862","0.464","-0.736","1.162","-0.157","-0.088","N/A","N/A","-0.309","N/A",3,1,2,4,3,2,1,4,1,1,0,0,1,0
"Ojai",34.4482528,-119.2465775,"-0.521","0.219","-0.643","-0.681","-0.402","1.187","0.302","0.754","-0.145","-0.088","N/A","N/A","-0.309","N/A",1,2,1,1,1,4,2,3,1,1,0,0,1,0
"Simi Valley",34.2668875,-118.7484575,"-0.452","-0.541","-1","0.104","-0.439","0.541","-0.47","0.764","-0.153","-0.088","N/A","N/A","-0.309","N/A",1,1,1,2,1,3,1,3,1,1,0,0,1,0
"Thousand Oaks",34.1932896,-118.874235,"-0.614","-0.293","-1.182","-0.159","-0.535","0.17","-0.214","0.93","-0.153","-0.088","N/A","N/A","-0.309","N/A",1,1,1,1,1,2,1,3,1,1,0,0,1,0
"Piedmont",37.8225436,-122.2300249,"-0.89","-0.045","-2.76","-0.655","-1.089","-0.098","0.02","2.719","-0.157","-0.088","N/A","N/A","-0.309","N/A",1,1,1,1,1,1,2,4,1,1,0,0,1,0
"Temecula",33.4930818,-117.1317297,"-0.39","-0.486","-0.909","0.295","-0.313","0.316","-0.691","N/A","-0.153","-0.088","N/A","N/A","N/A","N/A",1,1,1,2,1,2,1,0,1,1,0,0,0,0
"Petaluma",38.2422531,-122.6286306,"-0.277","-0.493","-0.657","-0.064","-0.356","0.193","-0.238","0.958","-0.1","-0.088","N/A","N/A","-0.186","N/A",1,1,1,1,1,2,1,3,1,1,0,0,1,0
"Santa Rosa",38.4468158,-122.7061361,"-0.087","-0.383","-0.249","0.443","-0.054","-0.009","-0.302","0.817","-0.153","-0.088","N/A","N/A","-0.309","N/A",1,1,1,2,1,1,1,3,1,1,0,0,1,0
"La Palma",33.8506159,-118.0395647,"-0.494","0.061","-0.851","1.004","-0.447","0.055","0.188","1.225","-0.157","-0.088","N/A","N/A","-0.309","N/A",1,2,1,4,1,2,2,4,1,1,0,0,1,0
"Los Alamitos",33.7968831,-118.061039,"-0.082","-0.447","-0.604","0.547","-0.198","0.601","-0.389","0.91","-0.157","-0.088","N/A","N/A","-0.303","N/A",1,1,1,3,1,3,1,3,1,1,0,0,1,0
"Mission Viejo",33.6093352,-117.656471,"-0.588","-0.347","-1.249","-0.088","-0.636","0.251","-0.18","1.002","-0.141","-0.088","N/A","N/A","-0.309","N/A",1,1,1,1,1,2,1,4,1,1,0,0,1,0
"Rancho Santa Margarita",33.6323536,-117.5990075,"-0.642","-1.205","-1.075","0.052","-0.803","0.378","-1.391","0.812","-0.157","-0.088","N/A","N/A","-0.309","N/A",1,1,1,2,1,2,1,3,1,1,0,0,1,0
"San Clemente",33.4491445,-117.6131194,"-0.664","-0.318","-1.168","-0.393","-0.697","1.097","-0.32","1.06","-0.145","-0.088","N/A","N/A","-0.308","N/A",1,1,1,1,1,4,1,4,1,1,0,0,1,0
"Seal Beach",33.751918,-118.0732505,"-0.539","1.04","-0.672","-0.453","-0.717","-1.275","1.484","0.359","-0.13","-0.087","N/A","N/A","0.347","N/A",1,4,1,1,1,1,4,2,1,1,0,0,2,0
"Villa Park",33.8180671,-117.8102948,"-0.611","0.862","-3.179","-0.585","-0.614","-0.2","0.771","1.351","-0.157","-0.088","N/A","N/A","-0.309","N/A",1,3,1,1,1,1,3,4,1,1,0,0,1,0
"Aliso Viejo",33.5792186,-117.728915,"-0.696","-1.409","-0.994","0.197","-0.726","0.378","-1.489","1.071","-0.157","-0.088","N/A","N/A","-0.309","N/A",1,1,1,2,1,2,1,4,1,1,0,0,1,0
"Huntington Beach",33.6905687,-118.00933,"-0.339","-0.533","-0.784","0.008","-0.455","0.601","-0.405","1.285","-0.018","-0.088","N/A","N/A","1.883","N/A",1,1,1,2,1,3,1,4,1,1,0,0,4,0
"Tustin",33.7309366,-117.8105923,"0.127","-0.96","-0.503","1.136","0.078","0.329","-1.186","1.109","-0.157","-0.088","N/A","N/A","-0.309","N/A",2,1,1,4,2,2,1,4,1,1,0,0,1,0
"Buena Park",33.8573527,-118.0073733,"0.214","-0.512","-0.486","1.585","0.065","1.317","-0.616","1.04","-0.157","-0.088","N/A","N/A","-0.309","N/A",2,1,1,4,2,4,1,4,1,1,0,0,1,0
"Dana Point",33.4632594,-117.7130166,"-0.465","-0.267","-1.158","-0.397","-0.619","0.851","-0.105","1.292","0.784","-0.064","N/A","N/A","-0.293","N/A",1,1,1,1,1,3,1,4,3,1,0,0,1,0
"Fountain Valley",33.7105823,-117.951129,"-0.267","-0.065","-0.989","0.561","-0.403","0.813","0.061","1.117","-0.149","-0.088","N/A","N/A","-0.309","N/A",1,1,1,3,1,3,2,4,1,1,0,0,1,0
"Laguna Beach",33.542891,-117.7624901,"-0.702","-0.223","-1.555","-0.825","-0.566","0.832","-0.252","2.175","-0.157","-0.088","N/A","N/A","-0.307","N/A",1,1,1,1,1,3,1,4,1,1,0,0,1,0
"Laguna Hills",33.5915227,-117.6994074,"-0.26","-0.58","-1.093","0.216","-0.424","0.102","-0.6","0.972","-0.157","-0.088","N/A","N/A","-0.309","N/A",1,1,1,2,1,2,1,3,1,1,0,0,1,0
"Laguna Woods",33.6129246,-117.731443,"1.799","3.31","-0.063","-0.505","-0.622","2.76","3.428","0.506","-0.157","-0.088","N/A","N/A","-0.309","N/A",4,4,1,1,1,4,4,3,1,1,0,0,1,0
"Lake Forest",33.6549461,-117.6758479,"-0.419","-0.952","-0.826","0.359","-0.428","0.12","-0.914","0.913","-0.126","-0.088","N/A","N/A","-0.309","N/A",1,1,1,2,1,2,1,3,1,1,0,0,1,0
"Clayton",37.9403195,-121.9300757,"-0.922","-0.324","-1.89","-0.498","-0.97","-0.134","-0.111","1.008","-0.157","-0.088","N/A","N/A","-0.309","N/A",1,1,1,1,1,1,1,4,1,1,0,0,1,0
"El Cerrito",37.9196297,-122.3025159,"-0.462","-0.442","-0.834","0.47","-0.436","1.313","-0.333","1.381","-0.157","-0.088","N/A","N/A","-0.309","N/A",1,1,1,2,1,4,1,4,1,1,0,0,1,0
"Hercules",38.0214271,-122.288929,"-0.66","-0.698","-1.109","0.931","-0.72","0.253","-0.425","0.763","-0.157","-0.088","N/A","N/A","-0.282","N/A",1,1,1,3,1,2,1,3,1,1,0,0,1,0
"Moraga",37.8456927,-122.123217,"-0.845","0.223","-1.722","-0.447","-1.007","N/A","0.323","7.006","-0.157","-0.088","N/A","N/A","-0.309","N/A",1,2,1,1,1,0,2,4,1,1,0,0,1,0
"Anaheim",33.8230092,-118.0176849,"0.389","-0.614","-0.305","1.463","0.429","0.811","-0.833","0.984","-0.157","-0.088","N/A","N/A","-0.309","N/A",2,1,1,4,2,3,1,3,1,1,0,0,1,0
"Costa Mesa",33.6659055,-117.9123358,"0.077","-1.032","-0.516","0.444","-0.077","1.169","-1.19","1.254","-0.138","-0.088","N/A","N/A","-0.279","N/A",2,1,1,2,1,4,1,4,1,1,0,0,1,0
"Cypress",33.8184768,-118.0383074,"-0.538","-0.331","-0.83","0.831","-0.609","0.621","-0.299","1.051","-0.157","-0.088","N/A","N/A","-0.309","N/A",1,1,1,3,1,3,1,4,1,1,0,0,1,0
"Fullerton",33.8857144,-117.9280246,"-0.054","-0.484","-0.478","1.003","0.085","1.215","-0.678","1.06","-0.157","-0.088","N/A","N/A","-0.309","N/A",1,1,1,4,2,4,1,4,1,1,0,0,1,0
"Garden Grove",33.7787816,-117.9604719,"0.377","-0.367","-0.235","1.749","0.401","1.022","-0.543","1.197","-0.157","-0.088","N/A","N/A","-0.309","N/A",2,1,1,4,2,4,1,4,1,1,0,0,1,0
"Laguna Niguel",33.5288675,-117.7011753,"-0.365","-0.492","-1.321","-0.163","-0.547","0.135","-0.482","1.132","-0.157","-0.088","N/A","N/A","-0.309","N/A",1,1,1,1,1,2,1,4,1,1,0,0,1,0
"Orange",33.8287595,-117.7851071,"0.01","-0.516","-0.741","0.599","-0.016","0.793","-0.674","0.983","-0.157","-0.088","N/A","N/A","-0.309","N/A",2,1,1,3,1,3,1,3,1,1,0,0,1,0
"Placentia",33.8811581,-117.8547827,"-0.284","-0.586","-0.807","0.723","-0.203","0.669","-0.472","1.088","-0.157","-0.088","N/A","N/A","-0.309","N/A",1,1,1,3,1,3,1,4,1,1,0,0,1,0
"San Juan Capistrano",33.5008946,-117.6543971,"-0.345","0.078","-1.023","0.254","-0.333","0.68","0.024","0.772","-0.157","-0.088","N/A","N/A","-0.309","N/A",1,2,1,2,1,3,2,3,1,1,0,0,1,0
"Santa Ana",33.736332,-117.8829516,"0.781","-0.607","-0.029","2.357","0.942","0.67","-0.995","1.285","-0.157","-0.088","N/A","N/A","-0.309","N/A",3,1,1,4,3,3,1,4,1,1,0,0,1,0
"Westminster",33.7522888,-117.9938733,"0.495","-0.029","-0.201","1.601","0.291","0.97","-0.139","1.253","-0.157","-0.088","N/A","N/A","-0.306","N/A",2,1,1,4,2,3,1,4,1,1,0,0,1,0
"Yorba Linda",33.8869705,-117.77259,"-0.652","-0.327","-1.487","-0.067","-0.74","0.604","-0.182","1.023","-0.157","-0.088","N/A","N/A","-0.309","N/A",1,1,1,1,1,3,1,4,1,1,0,0,1,0
"Santa Paula",34.352314,-119.0688457,"0.391","-0.229","0.124","1.727","0.804","0.089","-0.362","0.721","-0.157","-0.088","N/A","N/A","-0.309","N/A",2,1,2,4,3,2,1,3,1,1,0,0,1,0
"Chino Hills",33.9429693,-117.7256483,"-0.471","-0.499","-1.083","0.753","-0.453","0.386","-0.812","N/A","-0.157","-0.088","N/A","N/A","N/A","N/A",1,1,1,3,1,2,1,0,1,1,0,0,0,0
"Brentwood",37.9355674,-121.7189666,"-0.481","-0.108","-1.353","0.132","-0.365","0.508","-0.155","0.769","-0.153","-0.088","N/A","N/A","-0.309","N/A",1,1,1,2,1,3,1,3,1,1,0,0,1,0
"Redwood City",37.5152736,-122.2136716,"-0.217","-0.929","-1.169","0.731","-0.296","0.276","-0.951","1.965","-0.076","-0.087","N/A","N/A","4.062","N/A",1,1,1,3,1,2,1,4,1,1,0,0,4,0
"San Rafael",37.9810032,-122.5069297,"-0.148","-0.503","-0.896","0.51","-0.305","-0.33","-0.428","1.573","0.03","-0.086","N/A","N/A","1.016","N/A",1,1,1,3,1,1,1,4,2,1,0,0,4,0
"Carmel-by-the-Sea",36.5529458,-121.9218892,"-0.426","1.476","-0.909","-0.794","-1.006","0.515","1.524","1.307","-0.141","-0.087","N/A","N/A","-0.306","N/A",1,4,1,1,1,3,4,4,1,1,0,0,1,0
"Del Rey Oaks",36.5825013,-121.8297974,"-0.643","-0.314","-0.995","-0.375","-0.429","0.238","0.23","0.303","-0.157","-0.088","N/A","N/A","-0.309","N/A",1,1,1,1,1,2,2,2,1,1,0,0,1,0
"Gonzales",36.505979,-121.442918,"0.316","-0.244","0.245","2.033","0.272","-0.447","-1.075","-0.02","-0.157","-0.088","N/A","N/A","-0.309","N/A",2,1,2,4,2,1,1,1,1,1,0,0,1,0
"Greenfield",36.3233901,-121.24475,"0.532","-0.333","0.042","3.135","0.627","1.35","-1.187","-0.054","-0.157","-0.088","N/A","N/A","-0.309","N/A",3,1,2,4,3,4,1,1,1,1,0,0,1,0
"Winters",38.5332708,-121.975473,"-0.069","-0.687","-0.153","0.358","0.081","0.39","-0.921","N/A","-0.157","-0.088","N/A","N/A","N/A","N/A",1,1,1,2,2,2,1,0,1,1,0,0,0,0
"Fairfield",38.2592897,-122.0320951,"-0.157","-0.386","-0.445","0.946","-0.017","-0.005","-0.415","0.476","-0.157","-0.088","N/A","N/A","-0.255","N/A",1,1,1,3,1,1,1,2,1,1,0,0,1,0
"Vacaville",38.3586211,-121.9686015,"-0.275","-0.189","-0.498","0.286","-0.18","0.149","-0.11","0.534","-0.157","-0.088","N/A","N/A","-0.309","N/A",1,1,1,2,1,2,1,3,1,1,0,0,1,0
"Ukiah",39.146614,-123.2103259,"0.558","0.013","0.298","0.607","0.667","0.772","-0.303","-0.695","-0.126","-0.087","N/A","N/A","-0.309","N/A",3,2,2,3,3,3,1,1,1,1,0,0,1,0
"Coronado",32.6572021,-117.1561371,"-0.613","0.842","-1.51","-0.538","-0.825","0.465","0.564","2.169","-0.129","-0.087","N/A","N/A","-0.1","N/A",1,3,1,1,1,2,3,4,1,1,0,0,1,0
"Escondido",33.1330533,-117.074043,"0.246","-0.472","-0.137","1.144","0.179","0.389","-0.665","0.709","-0.157","-0.088","N/A","N/A","-0.309","N/A",2,1,1,4,2,2,1,3,1,1,0,0,1,0
"Imperial Beach",32.5653537,-117.1145672,"0.859","-0.216","-0.001","1.081","0.679","1.944","-0.636","0.941","-0.13","-0.087","N/A","N/A","0.07","N/A",3,1,1,4,3,4,1,3,1,1,0,0,2,0
"Marina",36.6802616,-121.7893615,"-0.181","-0.321","0.02","1.104","0.101","-0.13","-0.318","0.111","-0.141","-0.088","N/A","N/A","-0.307","N/A",1,1,2,4,2,1,1,2,1,1,0,0,1,0
"Sand City",36.6219032,-121.8475249,"-0.028","-0.478","0.069","-0.055","0.41","0.178","-0.821","0.152","-0.157","-0.088","N/A","N/A","-0.308","N/A",1,1,2,1,2,2,1,2,1,1,0,0,1,0
"Seaside",36.625243,-121.8239422,"0.354","-0.418","-0.251","1.3","0.245","0.206","-0.58","0.164","-0.157","-0.088","N/A","N/A","-0.309","N/A",2,1,1,4,2,2,1,2,1,1,0,0,1,0
"Soledad",36.4379099,-121.3156119,"0.156","0.857","0.025","1.694","0.576","-0.191","-0.259","-0.049","-0.157","-0.088","N/A","N/A","-0.309","N/A",2,3,2,4,3,1,1,1,1,1,0,0,1,0
"Oakland",37.7698464,-122.22569,"0.665","-0.77","-0.26","1.125","0.407","1.521","-0.882","1.362","-0.13","-0.088","N/A","N/A","1.41","N/A",3,1,1,4,2,4,1,4,1,1,0,0,4,0
"Carson",33.840367,-118.2495736,"-0.069","-0.188","-0.263","1.588","0.211","0.486","0.038","0.781","-0.157","-0.088","N/A","N/A","-0.297","N/A",1,1,1,4,2,2,2,3,1,1,0,0,1,0
"Lemon Grove",32.7330714,-117.0344138,"0.069","-0.167","-0.139","0.935","0.466","0.882","-0.275","0.886","-0.157","-0.088","N/A","N/A","-0.309","N/A",2,1,1,3,2,3,1,3,1,1,0,0,1,0
"Chula Vista",32.6276701,-117.0151696,"0.032","-0.339","-0.418","1.426","0.355","0.866","-0.511","0.84","-0.126","-0.088","N/A","N/A","-0.266","N/A",2,1,1,4,2,3,1,3,1,1,0,0,1,0
"San Diego",32.8152995,-117.134993,"0.062","-0.578","-0.393","0.622","0.035","0.862","-0.789","0.942","4.259","-0.086","N/A","N/A","0.006","N/A",2,1,1,3,2,3,1,3,4,1,0,0,2,0
"Sausalito",37.8583694,-122.4918436,"-0.789","-0.615","-1.447","-0.873","-0.879","-0.4","-0.438","2.098","-0.076","-0.078","N/A","N/A","-0.139","N/A",1,1,1,1,1,1,1,4,1,1,0,0,1,0
"Orinda",37.8816114,-122.1685912,"-0.836","0.013","-2.26","-0.612","-0.996","-0.065","0.149","1.641","-0.157","-0.088","N/A","N/A","-0.309","N/A",1,2,1,1,1,1,2,4,1,1,0,0,1,0
"Pinole",38.0017019,-122.318488,"-0.686","-0.272","-0.693","0.884","-0.349","0.056","0.205","0.714","-0.13","-0.087","N/A","N/A","-0.297","N/A",1,1,1,3,1,2,2,3,1,1,0,0,1,0
"Richmond",37.9522779,-122.360609,"0.323","-0.516","-0.189","1.538","0.49","0.917","-0.638","0.704","0.11","-0.086","N/A","N/A","0.207","N/A",2,1,1,4,2,3,1,3,2,1,0,0,2,0
"San Pablo",37.9628505,-122.3425736,"0.703","-0.509","0.263","2.178","0.652","-0.019","-0.943","1.214","-0.157","-0.088","N/A","N/A","-0.309","N/A",3,1,2,4,3,1,1,4,1,1,0,0,1,0
"Lafayette",37.891004,-122.1195292,"-0.892","-0.289","-1.82","-0.507","-0.818","0.257","-0.391","1.619","-0.157","-0.088","N/A","N/A","-0.309","N/A",1,1,1,1,1,2,1,4,1,1,0,0,1,0
"Montclair",34.0714521,-117.698054,"0.534","-0.369","0.104","1.771","0.885","0.69","-0.728","N/A","-0.157","-0.088","N/A","N/A","N/A","N/A",3,1,2,4,3,3,1,0,1,1,0,0,0,0
"Bradbury",34.1531592,-117.9688184,"-0.126","0.245","-3.054","0.633","-0.696","0.12","0.254","1.983","-0.157","-0.088","N/A","N/A","-0.309","N/A",1,2,1,3,1,2,2,4,1,1,0,0,1,0
"Healdsburg",38.6225714,-122.8656918,"-0.59","-0.201","-0.664","-0.09","-0.497","1.237","0.175","0.749","-0.157","-0.088","N/A","N/A","-0.309","N/A",1,1,1,1,1,4,2,3,1,1,0,0,1,0
"Windsor",38.5420993,-122.8086133,"-0.71","-0.694","-0.826","0.065","-0.314","0.046","-0.446","0.742","-0.157","-0.088","N/A","N/A","-0.309","N/A",1,1,1,2,1,2,1,3,1,1,0,0,1,0
"Fort Bragg",39.4410694,-123.8036201,"0.665","0.049","0.427","0.7","0.703","0.916","-0.086","-1.112","1.831","0.145","N/A","N/A","-0.298","N/A",3,2,2,3,3,3,1,1,4,2,0,0,1,0
"El Cajon",32.8016713,-116.9603972,"1.094","-0.164","0.058","0.908","0.677","0.695","-0.635","1.004","-0.153","-0.088","N/A","N/A","-0.309","N/A",4,1,2,3,3,3,1,4,1,1,0,0,1,0
"Encinitas",33.0506323,-117.2636163,"-0.513","-0.381","-1.051","-0.494","-0.597","1.2","-0.384","1.278","-0.157","-0.088","N/A","N/A","-0.239","N/A",1,1,1,1,1,4,1,4,1,1,0,0,1,0
"La Mesa",32.7694947,-117.0219232,"-0.076","-0.454","-0.184","0.334","-0.044","1.013","-0.485","1.024","-0.149","-0.088","N/A","N/A","-0.309","N/A",1,1,1,2,1,4,1,4,1,1,0,0,1,0
"Oceanside",33.2245056,-117.3062401,"0.003","-0.246","-0.403","0.455","-0.051","0.846","-0.227","0.763","0.94","-0.083","N/A","N/A","-0.291","N/A",2,1,1,2,1,3,1,3,3,1,0,0,1,0
"Poway",32.9876765,-117.0218144,"-0.462","-0.368","-0.86","0.097","-0.447","0.674","-0.284","0.654","-0.157","-0.088","N/A","N/A","-0.309","N/A",1,1,1,2,1,3,1,3,1,1,0,0,1,0
"San Marcos",33.1338931,-117.169367,"-0.116","-0.493","-0.509","0.795","-0.112","1.122","-0.697","0.757","-0.153","-0.088","N/A","N/A","-0.309","N/A",1,1,1,3,1,4,1,3,1,1,0,0,1,0
"Alameda",37.7419107,-122.2599139,"-0.254","-0.679","-0.739","0.53","-0.387","0.609","-0.655","1.572","0.086","-0.086","N/A","N/A","1.434","N/A",1,1,1,3,1,3,1,4,2,1,0,0,4,0
"Albany",37.8906499,-122.3181164,"-0.389","-0.903","-0.763","0.708","-0.484","0.688","-1.008","1.847","-0.157","-0.088","N/A","N/A","-0.219","N/A",1,1,1,3,1,3,1,4,1,1,0,0,1,0
"Berkeley",37.8669717,-122.2991474,"-0.383","-0.445","-0.658","-0.164","-0.115","1.052","-0.628","2.123","1.108","-0.079","N/A","N/A","-0.272","N/A",1,1,1,1,1,4,1,4,4,1,0,0,1,0
"Dublin",37.7161535,-121.8962343,"-0.69","-0.929","-1.692","0.607","-0.748","1.153","-1.286","1.221","-0.157","-0.088","N/A","N/A","-0.309","N/A",1,1,1,3,1,4,1,4,1,1,0,0,1,0
"Emeryville",37.8399065,-122.2989635,"0.427","-1.064","-0.417","0.131","-0.373","2.289","-1.227","1.311","-0.13","-0.086","N/A","N/A","-0.244","N/A",2,1,1,2,1,4,1,4,1,1,0,0,1,0
"Vista",33.1895322,-117.2386266,"0.227","-0.659","-0.237","0.934","0.061","0.616","-0.901","0.855","-0.141","-0.088","N/A","N/A","-0.309","N/A",2,1,1,3,2,3,1,3,1,1,0,0,1,0
"Newark",37.5045144,-122.0329158,"-0.281","-0.607","-0.905","0.958","-0.516","0.23","-0.654","1.016","-0.157","-0.088","N/A","N/A","2.975","N/A",1,1,1,3,1,2,1,4,1,1,0,0,4,0
"San Leandro",37.7033683,-122.163036,"-0.11","-0.557","-0.302","1.394","0.026","0.645","-0.452","1.124","-0.126","-0.088","N/A","N/A","0.081","N/A",1,1,1,4,2,3,1,4,1,1,0,0,2,0
"Union City",37.6029595,-122.0187225,"-0.266","-0.37","-0.865","1.135","-0.453","0.272","-0.387","1.061","-0.157","-0.088","N/A","N/A","0.712","N/A",1,1,1,4,1,2,1,4,1,1,0,0,3,0
"Fremont",37.5010483,-122.0839341,"-0.497","-0.61","-1.081","0.924","-0.682","0.516","-0.922","1.238","-0.13","-0.088","N/A","N/A","5.019","N/A",1,1,1,3,1,3,1,4,1,1,0,0,4,0
"Napa",38.2972195,-122.3011697,"-0.318","-0.599","-0.482","0.495","-0.312","0.781","-0.328","0.984","-0.149","-0.088","N/A","N/A","0.171","N/A",1,1,1,2,1,3,1,3,1,1,0,0,2,0
"St. Helena",38.504045,-122.4677325,"-0.384","0.271","-0.875","0.26","-0.368","0.589","0.329","1.105","-0.157","-0.088","N/A","N/A","-0.309","N/A",1,2,1,2,1,3,2,4,1,1,0,0,1,0
"King City",36.2162833,-121.1319616,"1.211","0.022","0.525","3.064","0.761","-0.415","-1.11","-0.536","-0.157","-0.088","N/A","N/A","-0.309","N/A",4,2,3,4,3,1,1,1,1,1,0,0,1,0
"Upland",34.1160731,-117.6599224,"0.093","-0.45","-0.37","0.691","0.067","0.513","-0.536","N/A","-0.157","-0.088","N/A","N/A","N/A","N/A",2,1,1,3,2,3,1,0,1,1,0,0,0,0
"Carlsbad",33.1296806,-117.2817361,"-0.644","-0.427","-1.173","-0.16","-0.673","0.906","-0.495","1.071","-0.126","-0.088","N/A","N/A","-0.262","N/A",1,1,1,1,1,3,1,4,1,1,0,0,1,0
"National City",32.6658617,-117.097361,"0.922","0.207","0.312","1.844","0.787","1.417","-0.277","0.992","-0.077","-0.087","N/A","N/A","-0.26","N/A",3,2,2,4,3,4,1,3,1,1,0,0,1,0
"Santee",32.8584029,-116.9859684,"-0.377","-0.329","-0.382","-0.063","-0.376","0.614","-0.251","0.653","-0.153","-0.088","N/A","N/A","-0.309","N/A",1,1,1,1,1,3,1,3,1,1,0,0,1,0
"Solana Beach",32.9914992,-117.2581337,"-0.721","-0.251","-1.179","-0.432","-0.82","0.51","-0.101","1.609","-0.153","-0.088","N/A","N/A","-0.301","N/A",1,1,1,1,1,3,1,4,1,1,0,0,1,0
"Atascadero",35.4857179,-120.687942,"-0.502","-0.423","-0.273","-0.274","-0.656","0.762","-0.264","-0.386","-0.115","-0.087","N/A","N/A","-0.309","N/A",1,1,1,1,1,3,1,1,1,1,0,0,1,0
"Grover Beach",35.1208877,-120.6196642,"0.074","-0.349","-0.036","0.521","0.109","1.221","-0.401","0.29","-0.141","-0.088","N/A","N/A","-0.307","N/A",2,1,1,3,2,4,1,2,1,1,0,0,1,0
"Pismo Beach",35.1531734,-120.6738743,"-0.832","0.29","-0.311","-0.785","-0.916","0.506","0.271","0.27","-0.157","-0.088","N/A","N/A","-0.28","N/A",1,2,1,1,1,3,2,2,1,1,0,0,1,0
"Arroyo Grande",35.1241529,-120.5845219,"-0.523","0.098","-0.271","-0.343","-0.613","0.577","0.239","0.169","-0.157","-0.088","N/A","N/A","-0.309","N/A",1,2,1,1,1,3,2,2,1,1,0,0,1,0
"Monterey",36.6012904,-121.8825566,"-0.436","-0.032","-0.501","-0.213","-0.469","0.196","-0.237","0.518","1.896","-0.018","N/A","N/A","-0.305","N/A",1,1,1,1,1,2,1,3,4,1,0,0,1,0
"American Canyon",38.1790331,-122.2596023,"-0.105","-0.646","-0.635","1.255","-0.146","1.163","-0.399","0.651","-0.157","-0.088","N/A","N/A","-0.265","N/A",1,1,1,4,1,4,1,3,1,1,0,0,1,0
"Calistoga",38.5814083,-122.5826961,"-0.535","0.048","0.032","0.6","-0.362","0.418","-0.026","0.681","-0.157","-0.088","N/A","N/A","-0.309","N/A",1,2,2,3,1,2,1,3,1,1,0,0,1,0
"Yountville",38.3955283,-122.3669157,"-0.78","1.472","-0.052","-0.689","-0.717","-0.667","1.625","0.649","-0.157","-0.088","N/A","N/A","-0.309","N/A",1,4,1,1,1,1,4,3,1,1,0,0,1,0
"Buellton",34.6154975,-120.1942368,"-0.84","-0.487","-0.008","0.215","-0.805","-0.188","0.001","0.087","-0.157","-0.088","N/A","N/A","-0.309","N/A",1,1,1,2,1,1,2,2,1,1,0,0,1,0
"Antioch",37.9790748,-121.796195,"0.386","-0.281","-0.619","1.082","0.308","-0.472","-0.41","0.591","-0.157","-0.088","N/A","N/A","-0.299","N/A",2,1,1,4,2,1,1,3,1,1,0,0,1,0
"Concord",37.9721869,-122.0016175,"-0.089","-0.584","-0.441","0.623","-0.122","0.354","-0.577","0.829","-0.153","-0.088","N/A","N/A","-0.306","N/A",1,1,1,3,1,2,1,3,1,1,0,0,1,0
"Danville",37.8121407,-121.9698219,"-0.76","-0.146","-2.103","-0.365","-0.95","-0.214","-0.084","1.362","-0.153","-0.088","N/A","N/A","-0.309","N/A",1,1,1,1,1,1,1,4,1,1,0,0,1,0
"Martinez",37.9981228,-122.1144209,"-0.654","-0.658","-0.702","-0.063","-0.616","0.273","-0.441","0.76","-0.076","-0.086","N/A","N/A","-0.124","N/A",1,1,1,1,1,2,1,3,1,1,0,0,1,0
"Pittsburg",38.0199568,-121.9058201,"0.187","-0.523","-0.436","1.578","0.631","0.187","-0.669","0.611","-0.157","-0.088","N/A","N/A","0.698","N/A",2,1,1,4,3,2,1,3,1,1,0,0,3,0
"Pleasant Hill",37.9540083,-122.0758961,"-0.546","-0.583","-0.89","0.071","-0.667","0.354","-0.603","1.118","-0.157","-0.088","N/A","N/A","-0.309","N/A",1,1,1,2,1,2,1,4,1,1,0,0,1,0
"San Ramon",37.7646045,-121.933249,"-0.641","-0.855","-1.807","0.375","-0.916","0.509","-1.145","1.261","-0.157","-0.088","N/A","N/A","-0.309","N/A",1,1,1,2,1,3,1,4,1,1,0,0,1,0
"Walnut Creek",37.902666,-122.040479,"-0.506","0.346","-0.952","-0.204","-0.754","-0.047","0.488","1.192","-0.157","-0.088","N/A","N/A","-0.309","N/A",1,2,1,1,1,1,2,4,1,1,0,0,1,0
"Carpinteria",34.3852905,-119.500858,"-0.529","-0.336","-0.551","0.282","-0.162","-0.272","-0.225","0.68","-0.157","-0.088","N/A","N/A","-0.246","N/A",1,1,1,2,1,1,1,3,1,1,0,0,1,0
"Guadalupe",34.9616314,-120.5733774,"0.462","-0.399","0.27","2.441","0.48","-0.253","-0.755","0.15","-0.104","-0.082","N/A","N/A","-0.309","N/A",2,1,2,4,2,1,1,2,1,1,0,0,1,0
"Salinas",36.6901821,-121.6337145,"0.55","-0.348","0.057","2.358","0.478","-0.301","-0.795","0.411","-0.145","-0.088","N/A","N/A","-0.309","N/A",3,1,2,4,2,1,1,2,1,1,0,0,1,0
"Agoura Hills",34.1489422,-118.7639301,"-0.57","-0.599","-1.565","-0.421","-0.745","0.148","-0.728","0.985","-0.157","-0.088","N/A","N/A","-0.309","N/A",1,1,1,1,1,2,1,3,1,1,0,0,1,0
"Artesia",33.8675926,-118.0806353,"-0.054","0.008","-0.314","1.508","-0.049","1.318","-0.267","1.319","-0.157","-0.088","N/A","N/A","-0.309","N/A",1,2,1,4,1,4,1,4,1,1,0,0,1,0
"Milpitas",37.4339208,-121.8919831,"-0.294","-0.572","-1.097","1.47","-0.365","0.008","-0.813","1.37","-0.157","-0.088","N/A","N/A","-0.234","N/A",1,1,1,4,1,2,1,4,1,1,0,0,1,0
"Del Mar",32.9628522,-117.2624379,"-0.91","-0.192","-1.518","-1.162","-0.668","0.228","-0.327","2.649","-0.157","-0.088","N/A","N/A","-0.103","N/A",1,1,1,1,1,2,1,4,1,1,0,0,1,0
"Avalon",33.324043,-118.334699,"0.245","-0.981","-0.416","0.568","-0.311","0.303","-1.063","0.789","0.044","-0.043","N/A","N/A","N/A","N/A",2,1,1,3,1,2,1,3,2,1,0,0,0,0
"Bellflower",33.8878214,-118.1272504,"0.25","-0.414","0.091","1.573","0.451","0.748","-0.82","1.438","-0.157","-0.088","N/A","N/A","-0.309","N/A",2,1,2,4,2,3,1,4,1,1,0,0,1,0
"Bell Gardens",33.9643785,-118.1544369,"1.948","-0.295","0.317","2.813","1.726","0.207","-1.087","1.788","-0.157","-0.088","N/A","N/A","-0.309","N/A",4,1,2,4,4,2,1,4,1,1,0,0,1,0
"Claremont",34.1249246,-117.7139226,"-0.4","-0.023","-0.893","0.125","-0.515","1.104","0.114","0.814","-0.157","-0.088","N/A","N/A","-0.309","N/A",1,1,1,2,1,4,2,3,1,1,0,0,1,0
"Commerce",33.9945234,-118.1499518,"0.7","0.056","0.139","2.002","1.213","0.758","-0.362","0.561","-0.157","-0.088","N/A","N/A","-0.309","N/A",3,2,2,4,4,3,1,3,1,1,0,0,1,0
"Cudahy",33.9640029,-118.1825614,"1.854","-0.429","0.259","2.735","1.746","1.413","-1.259","2.021","-0.157","-0.088","N/A","N/A","-0.309","N/A",4,1,2,4,4,4,1,4,1,1,0,0,1,0
"El Monte",34.0746329,-118.0291358,"1.086","-0.072","0.249","2.462","1.033","1.345","-0.588","1.43","-0.157","-0.088","N/A","N/A","-0.309","N/A",4,1,2,4,4,4,1,4,1,1,0,0,1,0
"Solvang",34.5937578,-120.1396803,"0.712","-0.347","-0.683","0.145","-0.268","-0.015","-0.228","0.339","-0.157","-0.088","N/A","N/A","-0.309","N/A",3,1,1,2,1,1,1,2,1,1,0,0,1,0
"Goleta",34.4348747,-119.8577412,"-0.635","-0.653","-0.722","0.325","-0.322","-0.18","-0.394","-0.097","-0.153","-0.088","N/A","N/A","-0.303","N/A",1,1,1,2,1,1,1,1,1,1,0,0,1,0
"Lompoc",34.6626889,-120.470837,"0.752","-0.111","0.226","1.204","0.88","-0.064","-0.428","-0.094","-0.13","-0.088","N/A","N/A","-0.309","N/A",3,1,2,4,3,1,1,1,1,1,0,0,1,0
"Santa Barbara",34.4006009,-119.7129545,"-0.104","-0.651","-0.662","0.276","-0.137","0.297","-0.547","1.278","3.81","-0.05","N/A","N/A","-0.187","N/A",1,1,1,2,1,2,1,4,4,1,0,0,1,0
"Santa Maria",34.9332137,-120.4438151,"0.502","-0.513","0.068","2.194","0.502","0.267","-0.804","0.297","-0.13","-0.088","N/A","N/A","-0.309","N/A",3,1,2,4,3,2,1,2,1,1,0,0,1,0
"El Segundo",33.9171449,-118.401554,"-0.351","-1.106","-1.014","0.081","-0.285","1.363","-1.121","1.359","-0.157","-0.088","N/A","N/A","-0.309","N/A",1,1,1,2,1,4,1,4,1,1,0,0,1,0
"Hawaiian Gardens",33.8304821,-118.0734509,"1.621","-0.046","0.209","2.22","1.082","1.113","-0.695","1.458","-0.157","-0.088","N/A","N/A","-0.309","N/A",4,1,2,4,4,4,1,4,1,1,0,0,1,0
"Hermosa Beach",33.8652682,-118.3962966,"-0.64","-1.475","-1.382","-0.616","-0.77","0.95","-1.351","2.702","0.008","-0.081","N/A","N/A","-0.309","N/A",1,1,1,1,1,3,1,4,2,1,0,0,1,0
"Hidden Hills",34.1637439,-118.6612038,"-0.911","0.737","-1.454","-0.833","-0.886","-0.763","-0.195","2.195","-0.157","-0.088","N/A","N/A","-0.309","N/A",1,3,1,1,1,1,1,4,1,1,0,0,1,0
"Pasadena",34.160592,-118.139593,"0.288","-0.596","-0.538","0.847","-0.077","1.069","-0.757","1.382","-0.157","-0.088","N/A","N/A","-0.309","N/A",2,1,1,3,1,4,1,4,1,1,0,0,1,0
"Newport Beach",33.5971325,-117.890263,"-0.593","-0.15","-1.554","-0.71","-0.813","0.499","-0.313","2.101","0.432","-0.083","N/A","N/A","0.039","N/A",1,1,1,1,1,2,1,4,2,1,0,0,2,0
"Santa Monica",34.0234128,-118.4816663,"-0.314","-0.934","-0.846","-0.148","-0.276","-0.05","-1.045","2.509","0.06","-0.086","N/A","N/A","-0.307","N/A",1,1,1,1,1,1,1,4,2,1,0,0,1,0
"Cerritos",33.8677431,-118.0694719,"-0.561","0.296","-1.239","1.211","-0.603","0.586","0.461","1.101","-0.157","-0.088","N/A","N/A","-0.309","N/A",1,2,1,4,1,3,2,4,1,1,0,0,1,0
"Covina",34.0904746,-117.8821434,"-0.238","-0.5","-0.283","1.077","0.079","0.826","-0.583","0.983","-0.157","-0.088","N/A","N/A","-0.309","N/A",1,1,1,4,2,3,1,3,1,1,0,0,1,0
"Lomita",33.7933044,-118.3174486,"0.108","-0.491","-0.118","0.766","0.058","0.25","-0.638","1.516","-0.157","-0.088","N/A","N/A","-0.309","N/A",2,1,1,3,2,2,1,4,1,1,0,0,1,0
"Manhattan Beach",33.8896319,-118.3973699,"-0.811","-0.32","-2.005","-0.395","-0.828","0.962","-0.482","2.988","-0.13","-0.088","N/A","N/A","-0.309","N/A",1,1,1,1,1,3,1,4,1,1,0,0,1,0
"Maywood",33.9885052,-118.1876662,"1.567","-0.502","0.416","2.908","1.547","0.654","-1.242","2.225","-0.157","-0.088","N/A","N/A","-0.309","N/A",4,1,2,4,4,3,1,4,1,1,0,0,1,0
"Monrovia",34.1639973,-117.9846118,"-0.259","-0.718","-0.42","0.741","-0.196","1.17","-0.794","0.902","-0.157","-0.088","N/A","N/A","-0.309","N/A",1,1,1,3,1,4,1,3,1,1,0,0,1,0
"San Dimas",34.1079574,-117.8085286,"-0.339","-0.04","-0.661","0.191","-0.59","0.338","0.095","0.674","-0.157","-0.088","N/A","N/A","-0.309","N/A",1,1,1,2,1,2,2,3,1,1,0,0,1,0
"El Paso de Robles (Paso Robles)",35.6407402,-120.6542682,"-0.048","-0.346","-0.179","0.328","-0.115","1.612","-0.359","-0.524","-0.157","-0.088","N/A","N/A","-0.309","N/A",1,1,1,2,1,4,1,1,1,1,0,0,1,0
"Morro Bay",35.3672891,-120.8692045,"-0.261","0.66","-0.079","-0.661","-0.286","1.314","0.715","-0.092","1.387","0.037","N/A","N/A","-0.234","N/A",1,3,1,1,1,4,3,1,4,2,0,0,1,0
"San Luis Obispo",35.263954,-120.661126,"-0.387","-0.52","-0.134","-0.52","0.386","0.291","-0.763","0.24","-0.153","-0.088","N/A","N/A","-0.309","N/A",1,1,1,1,2,2,1,2,1,1,0,0,1,0
"Oakley",37.9939359,-121.6911388,"-0.434","-0.551","-0.592","0.661","-0.198","-0.068","-0.67","0.509","-0.157","-0.088","N/A","N/A","-0.309","N/A",1,1,1,3,1,1,1,3,1,1,0,0,1,0
"Watsonville",36.9196077,-121.7702498,"0.502","-0.507","0.02","2.349","0.599","-0.142","-0.7","1.096","-0.149","-0.088","N/A","N/A","-0.307","N/A",3,1,2,4,3,1,1,4,1,1,0,0,1,0
"Santa Cruz",36.974385,-122.0352679,"0.218","-0.343","-0.589","-0.267","0.299","0.077","-0.572","1.624","5.515","-0.013","N/A","N/A","-0.298","N/A",2,1,1,1,2,2,1,4,4,1,0,0,1,0
"Acalanes Ridge",37.9047221,-122.0785741,"-1.074","-1.049","-0.379","-0.409","-0.99","N/A","-1.295","N/A","-0.157","-0.088","N/A","N/A","-0.309","N/A",1,1,1,1,1,0,1,0,1,1,0,0,1,0
"Acton",34.4960703,-118.183897,"-0.46","0.06","-0.508","-0.476","-0.413","0.119","0.046","0.264","-0.157","-0.088","N/A","N/A","-0.309","N/A",1,2,1,1,1,2,2,2,1,1,0,0,1,0
"Agua Dulce",34.5045821,-118.3163987,"-0.409","0.125","-1.347","-0.513","-0.466","N/A","0.151","N/A","-0.157","-0.088","N/A","N/A","-0.309","N/A",1,2,1,1,1,0,2,0,1,1,0,0,1,0
"Aguanga",33.4522463,-116.8554705,"-0.475","0.315","2.078","-0.288","0.14","N/A","0.595","N/A","-0.157","-0.088","N/A","N/A","N/A","N/A",1,2,4,1,2,0,3,0,1,1,0,0,0,0
"Alamo",37.8546013,-122.0129845,"-0.795","0.434","-2.849","-0.928","-0.992","-0.479","0.373","1.942","-0.153","-0.088","N/A","N/A","-0.309","N/A",1,2,1,1,1,1,2,4,1,1,0,0,1,0
"Albion",39.2253267,-123.7575859,"-1.074","0.914","1.046","-0.953","0.159","N/A","1.832","N/A","-0.023","0.297","N/A","N/A","-0.282","N/A",1,3,4,1,2,0,4,0,1,2,0,0,1,0
"Alderpoint",40.1613467,-123.6157293,"-1.074","2.406","1.895","-1.28","0.411","N/A","-0.032","N/A","-0.157","-0.088","N/A","N/A","-0.309","N/A",1,4,4,1,2,0,1,0,1,1,0,0,1,0
"Alhambra Valley",37.9665402,-122.131847,"-0.812","0.456","-0.594","-0.645","-1.391","N/A","0.529","N/A","-0.157","-0.088","N/A","N/A","-0.309","N/A",1,2,1,1,1,0,3,0,1,1,0,0,1,0
"Allendale",38.4429856,-121.9833299,"-0.995","-0.271","-0.096","-1.024","-1.007","N/A","0.947","N/A","-0.157","-0.088","N/A","N/A","-0.309","N/A",1,1,1,1,1,0,3,0,1,1,0,0,1,0
"Alondra Park",33.8905082,-118.3354782,"0.721","-0.559","-0.073","1.597","0.58","1.322","-0.826","1.172","-0.157","-0.088","N/A","N/A","-0.309","N/A",3,1,1,4,3,4,1,4,1,1,0,0,1,0
"Alpine",32.8422857,-116.7560444,"-0.338","-0.19","-0.631","-0.421","-0.408","0.109","-0.034","0.479","-0.157","-0.088","N/A","N/A","-0.309","N/A",1,1,1,1,1,2,1,2,1,1,0,0,1,0
"Altadena",34.1922117,-118.1355893,"-0.329","-0.358","-0.826","0.557","-0.357","1.27","-0.227","1.139","-0.157","-0.088","N/A","N/A","-0.309","N/A",1,1,1,3,1,4,1,4,1,1,0,0,1,0
"Alto",37.9055811,-122.5187182,"-1.074","-0.696","-1.307","-1.038","-1.067","N/A","-1.192","N/A","-0.157","-0.088","N/A","N/A","-0.309","N/A",1,1,1,1,1,0,1,0,1,1,0,0,1,0
"Alum Rock",37.3694001,-121.8239302,"-0.061","-0.27","-0.67","2.161","0.268","0.354","-0.489","1.812","-0.157","-0.088","N/A","N/A","-0.309","N/A",1,1,1,4,2,2,1,4,1,1,0,0,1,0
"Amesti",36.9594832,-121.7817391,"0.439","-0.315","0.229","1.153","0.623","-0.58","-0.347","0.671","-0.157","-0.088","N/A","N/A","-0.309","N/A",2,1,2,4,3,1,1,3,1,1,0,0,1,0
"Anchor Bay",38.8126532,-123.5702668,"-1.074","1.332","0.087","-1.05","-0.758","N/A","2.58","N/A","-0.157","-0.088","N/A","N/A","-0.304","N/A",1,4,2,1,1,0,4,0,1,1,0,0,1,0
"Angwin",38.5778747,-122.4512239,"-0.465","-0.697","-0.466","0.275","-0.341","2.188","-0.823","0.411","-0.157","-0.088","N/A","N/A","-0.309","N/A",1,1,1,2,1,4,1,2,1,1,0,0,1,0
"Aptos",36.9911473,-121.8927575,"-0.72","-0.331","-0.922","-0.539","-0.99","0.084","0.133","1.097","-0.145","-0.088","N/A","N/A","-0.309","N/A",1,1,1,1,1,2,2,4,1,1,0,0,1,0
"Aptos Hills-Larkin Valley",36.9545594,-121.8214547,"-0.794","0.383","-0.958","-1.046","0.133","-0.517","0.853","0.784","-0.157","-0.088","N/A","N/A","-0.309","N/A",1,2,1,1,2,1,3,3,1,1,0,0,1,0
"Aromas",36.8747551,-121.6307316,"-0.441","-0.443","-0.264","-0.003","-0.474","-0.736","-0.692","N/A","-0.157","-0.088","N/A","N/A","N/A","N/A",1,1,1,1,1,1,1,0,1,1,0,0,0,0
"Ashland",37.6941687,-122.1158984,"0.726","-0.59","-0.051","2.217","0.817","0.91","-0.995","1.525","-0.157","-0.088","N/A","N/A","-0.309","N/A",3,1,1,4,3,3,1,4,1,1,0,0,1,0
"Avila Beach",35.1993549,-120.7207571,"-1.074","0.448","-0.61","-1.208","-1.232","N/A","0.578","N/A","1.124","0.789","N/A","N/A","-0.292","N/A",1,2,1,1,1,0,3,0,4,3,0,0,1,0
"Avocado Heights",34.0367691,-118.0017825,"-0.007","0.113","-0.293","1.9","0.425","0.848","-0.125","0.873","-0.157","-0.088","N/A","N/A","-0.309","N/A",1,2,1,4,2,3,1,3,1,1,0,0,1,0
"Ballard",34.6304728,-120.1117821,"-0.459","-0.163","0.358","-0.503","-0.784","N/A","-0.433","N/A","-0.157","-0.088","N/A","N/A","-0.309","N/A",1,1,2,1,1,0,1,0,1,1,0,0,1,0
"Bay Point",38.032742,-121.9609577,"0.494","-0.537","0.24","1.998","1.134","-0.296","-0.956","0.492","-0.157","-0.088","N/A","N/A","-0.044","N/A",2,1,2,4,4,1,1,2,1,1,0,0,1,0
"Bayview (Contra Costa County)",38.0062344,-122.3201647,"-0.872","0.083","-1.114","0.368","-0.168","N/A","-0.141","N/A","-0.157","-0.088","N/A","N/A","-0.244","N/A",1,2,1,2,1,0,1,0,1,1,0,0,1,0
"Bayview (Humboldt County)",40.7653348,-124.1786051,"-0.307","-0.319","0.879","-0.1","0.334","0.594","-0.621","-1.334","-0.157","-0.088","N/A","N/A","-0.213","N/A",1,1,3,1,2,3,1,1,1,1,0,0,1,0
"Bell Canyon",34.2081335,-118.6875883,"-0.395","-0.164","-3.271","-0.266","-0.683","N/A","-0.425","N/A","-0.157","-0.088","N/A","N/A","-0.309","N/A",1,1,1,1,1,0,1,0,1,1,0,0,1,0
"Benbow",40.0602672,-123.7653807,"0.383","0.664","0.957","-0.407","-0.918","N/A","0.402","N/A","-0.157","-0.088","N/A","N/A","-0.309","N/A",2,3,3,1,1,0,2,0,1,1,0,0,1,0
"Ben Lomond",37.0781958,-122.0881161,"-0.412","-0.625","-0.801","-0.36","-0.612","0.895","-0.555","0.924","-0.153","-0.088","N/A","N/A","-0.309","N/A",1,1,1,1,1,3,1,3,1,1,0,0,1,0
"Bertsch-Oceanview",41.7516381,-124.1704977,"1.823","0.977","0.9","-0.259","2.737","-0.812","0.563","-1.542","-0.157","-0.088","N/A","N/A","-0.235","N/A",4,3,3,1,4,1,3,1,1,1,0,0,1,0
"Bethel Island",38.0304665,-121.625018,"0.092","0.93","0.934","-0.54","0.406","-2.715","1.081","-0.024","-0.157","-0.088","N/A","N/A","-0.309","N/A",2,3,3,1,2,1,4,1,1,1,0,0,1,0
"Big Lagoon",41.1593611,-124.1298681,"-1.074","1.817","1.114","-0.776","-0.834","N/A","1.664","N/A","-0.157","-0.088","N/A","N/A","-0.298","N/A",1,4,4,1,1,0,4,0,1,1,0,0,1,0
"Blackhawk",37.8096767,-121.9131406,"-0.775","-0.255","-3.028","-0.492","-0.964","N/A","-0.307","N/A","-0.157","-0.088","N/A","N/A","-0.309","N/A",1,1,1,1,1,0,1,0,1,1,0,0,1,0
"Blacklake",35.0496894,-120.538642,"-1.074","2.631","0.139","-1.473","-1.261","N/A","3.741","N/A","-0.157","-0.088","N/A","N/A","-0.309","N/A",1,4,2,1,1,0,4,0,1,1,0,0,1,0
"Black Point-Green Point",38.1098416,-122.5188093,"-0.933","-0.006","-1.633","-0.874","-0.711","-0.691","0.507","1.291","-0.157","-0.088","N/A","N/A","1.138","N/A",1,1,1,1,1,1,3,4,1,1,0,0,4,0
"Bloomfield",38.3220688,-122.834464,"-0.628","-1.033","0.038","-0.649","-0.288","N/A","-0.457","N/A","-0.157","-0.088","N/A","N/A","-0.309","N/A",1,1,2,1,1,0,1,0,1,1,0,0,1,0
"Bodega",38.3488408,-122.9711641,"-1.074","0.955","-1.393","-1.149","0.403","N/A","1.116","N/A","-0.157","-0.088","N/A","N/A","-0.309","N/A",1,3,1,1,2,0,4,0,1,1,0,0,1,0
"Bodega Bay",38.3275057,-123.0300219,"-1.074","-0.56","-0.346","-1.423","-0.828","-1.032","0.417","0.922","2.255","2.784","N/A","N/A","-0.203","N/A",1,1,1,1,1,1,2,3,4,4,0,0,1,0
"Bolinas",37.9177251,-122.7095023,"-0.441","0.447","-0.969","-0.847","-0.572","1.948","0.858","1.284","0.112","0.121","N/A","N/A","-0.241","N/A",1,2,1,1,1,4,3,4,2,2,0,0,1,0
"Bonita",32.6412398,-117.0657958,"-0.614","0.196","-1.154","0.391","-0.079","0.219","0.587","0.839","-0.153","-0.088","N/A","N/A","-0.309","N/A",1,2,1,2,1,2,3,3,1,1,0,0,1,0
"Bonny Doon",37.0434804,-122.136848,"-0.141","-0.043","-0.779","-0.812","-0.648","N/A","0.302","N/A","-0.157","-0.088","N/A","N/A","-0.309","N/A",1,1,1,1,1,0,2,0,1,1,0,0,1,0
"Bonsall",33.2748761,-117.1918628,"-0.59","0.223","-0.817","-0.096","-0.231","0.441","0.073","0.427","-0.157","-0.088","N/A","N/A","-0.309","N/A",1,2,1,1,1,2,2,2,1,1,0,0,1,0
"Boonville",39.0114742,-123.3740427,"-0.084","-0.315","0.23","0.593","0.284","N/A","0.055","N/A","-0.153","-0.087","N/A","N/A","-0.309","N/A",1,1,2,3,2,0,2,0,1,1,0,0,1,0
"Boronda",36.6948914,-121.6746697,"-0.92","1.41","-0.094","2.379","0.539","-0.603","0.727","-0.117","-0.157","-0.088","N/A","N/A","-0.309","N/A",1,4,1,4,3,1,3,1,1,1,0,0,1,0
"Borrego Springs",33.2453976,-116.3570351,"-0.929","1.283","0.892","0.037","-0.369","0.265","1.372","-0.71","-0.157","-0.088","N/A","N/A","-0.309","N/A",1,4,3,2,1,2,4,1,1,1,0,0,1,0
"Bostonia",32.819048,-116.942264,"0.516","-0.27","0.163","0.681","0.831","0.127","-0.55","0.974","-0.157","-0.088","N/A","N/A","-0.309","N/A",3,1,2,3,3,2,1,3,1,1,0,0,1,0
"Boulder Creek",37.1341004,-122.1272075,"-0.476","-0.549","-0.283","-0.508","-0.128","0.127","-0.49","0.744","-0.157","-0.088","N/A","N/A","-0.309","N/A",1,1,1,1,1,2,1,3,1,1,0,0,1,0
"Boulevard",32.6640221,-116.2896012,"3.482","3.999","0.307","-1.542","1.202","N/A","3.518","N/A","-0.157","-0.088","N/A","N/A","-0.309","N/A",4,4,2,1,4,0,4,0,1,1,0,0,1,0
"Boyes Hot Springs",38.3126328,-122.4887382,"-0.223","-1.02","-0.232","0.791","0.157","0.317","-0.655","1.043","-0.157","-0.088","N/A","N/A","-0.309","N/A",1,1,1,3,2,2,1,4,1,1,0,0,1,0
"Bradley",35.8628398,-120.8042676,"-0.294","0.175","1.765","-0.953","-0.032","N/A","-1.03","-1.145","-0.157","-0.088","N/A","N/A","-0.309","N/A",1,2,4,1,1,0,1,1,1,1,0,0,1,0
"Broadmoor",37.6914244,-122.4811474,"-0.885","-1.011","-0.981","0.767","-0.515","0.889","-0.768","2.061","-0.157","-0.088","N/A","N/A","-0.309","N/A",1,1,1,3,1,3,1,4,1,1,0,0,1,0
"Brookdale",37.1057325,-122.1106268,"-0.02","-0.949","-0.206","-0.92","-0.105","N/A","-0.371","N/A","-0.157","-0.088","N/A","N/A","-0.309","N/A",1,1,1,1,1,0,1,0,1,1,0,0,1,0
"Brooktrails",39.4432827,-123.3938002,"0.236","-0.33","0.22","0.059","0.864","N/A","-0.051","N/A","-0.157","-0.088","N/A","N/A","-0.309","N/A",2,1,2,2,3,0,1,0,1,1,0,0,1,0
"Burbank CDP",37.3210726,-121.9304571,"-0.263","-1.197","-0.254","1.034","0.301","0.105","-1.25","1.823","-0.157","-0.088","N/A","N/A","-0.309","N/A",1,1,1,4,2,2,1,4,1,1,0,0,1,0
"Byron",37.8756342,-121.6421206,"0.513","0.237","-0.119","0.291","0.674","1.479","0.287","0.393","-0.157","-0.088","N/A","N/A","-0.309","N/A",3,2,1,2,3,4,2,2,1,1,0,0,1,0
"Callender",35.0479717,-120.5759076,"-1.074","-0.14","-0.604","0.728","-0.054","N/A","0.116","N/A","-0.157","-0.088","N/A","N/A","-0.309","N/A",1,1,1,3,1,0,2,0,1,1,0,0,1,0
"Calpella",39.2337206,-123.1937598,"-0.339","0.856","1.31","0.076","0.832","N/A","1.467","N/A","-0.157","-0.088","N/A","N/A","-0.309","N/A",1,3,4,2,3,0,4,0,1,1,0,0,1,0
"Cambria",35.5524795,-121.084527,"-0.302","1.118","-0.316","-0.566","-0.368","0.381","1.553","-0.349","-0.153","-0.088","N/A","N/A","-0.304","N/A",1,4,1,1,1,2,4,1,1,1,0,0,1,0
"Cambrian Park",37.2562735,-121.9289025,"-0.62","-0.611","-1.841","-0.299","-0.83","2.108","-0.502","1.827","-0.157","-0.088","N/A","N/A","-0.309","N/A",1,1,1,1,1,4,1,4,1,1,0,0,1,0
"Camino Tassajara",37.7908735,-121.8850351,"-0.575","-0.33","-2.043","0.152","-0.53","N/A","-1.031","N/A","-0.157","-0.088","N/A","N/A","-0.309","N/A",1,1,1,2,1,0,1,0,1,1,0,0,1,0
"Campo",32.6409665,-116.4745155,"1.351","0.134","0.128","1.274","1.747","N/A","-0.224","N/A","-0.157","-0.088","N/A","N/A","-0.309","N/A",4,2,2,4,4,0,1,0,1,1,0,0,1,0
"Camp Pendleton North",33.3194069,-117.3194177,"-0.89","1.18","0.019","0.26","-0.901","N/A","-1.081","0.354","-0.157","-0.088","N/A","N/A","-0.309","N/A",1,4,2,2,1,0,1,2,1,1,0,0,1,0
"Camp Pendleton South",33.2284125,-117.3808637,"-0.406","0.185","-0.072","0.953","-0.899","N/A","-1.238","1.868","-0.157","-0.088","N/A","N/A","-0.304","N/A",1,2,1,3,1,0,1,4,1,1,0,0,1,0
"Carmel Valley Village",36.5011591,-121.7321488,"-0.75","0.193","-1.013","-0.776","-0.339","0.279","0.951","3.663","-0.157","-0.088","N/A","N/A","-0.309","N/A",1,2,1,1,1,2,3,4,1,1,0,0,1,0
"Carmet",38.3744519,-123.0718595,"-1.074","2.629","2.832","-0.222","-1.448","N/A","-0.795","N/A","-0.157","N/A","N/A","N/A","-0.309","N/A",1,4,4,1,1,0,1,0,1,0,0,0,1,0
"Casa Conejo",34.184731,-118.9445166,"-0.598","-0.464","-1.075","-0.107","-0.207","0.505","-0.352","2.487","-0.157","-0.088","N/A","N/A","-0.309","N/A",1,1,1,1,1,3,1,4,1,1,0,0,1,0
"Casa de Oro-Mount Helix",32.7639604,-116.9688078,"-0.209","-0.194","-0.923","0.067","-0.326","0.282","0.074","0.872","-0.157","-0.088","N/A","N/A","-0.309","N/A",1,1,1,2,1,2,2,3,1,1,0,0,1,0
"Casmalia",34.8375885,-120.5310715,"-1.074","-0.38","1.928","0.126","-0.791","N/A","-0.02","N/A","-0.157","-0.088","N/A","N/A","-0.309","N/A",1,1,4,2,1,0,1,0,1,1,0,0,1,0
"Caspar",39.3630629,-123.8041936,"-1.074","-1.128","1.169","-0.746","-1.267","N/A","-0.089","N/A","-0.157","-0.088","N/A","N/A","-0.3","N/A",1,1,4,1,1,0,1,0,1,1,0,0,1,0
"Castaic",34.4800598,-118.632867,"-0.541","-0.732","-0.962","0.349","-0.32","N/A","-0.923","N/A","-0.157","-0.088","N/A","N/A","-0.309","N/A",1,1,1,2,1,0,1,0,1,1,0,0,1,0
"Castle Hill",37.8729549,-122.0573365,"-1.074","-0.201","-0.803","-0.953","-1.019","N/A","0.519","N/A","-0.157","-0.088","N/A","N/A","-0.309","N/A",1,1,1,1,1,0,3,0,1,1,0,0,1,0
"Castro Valley",37.7082758,-122.0627686,"-0.454","-0.428","-0.842","0.531","-0.525","0.467","-0.313","1.097","-0.157","-0.088","N/A","N/A","-0.309","N/A",1,1,1,3,1,2,1,4,1,1,0,0,1,0
"Castroville",36.764838,-121.7533738,"0.413","-0.651","0.345","2.966","0.565","0.396","-1.1","0.278","-0.157","-0.088","N/A","N/A","0.087","N/A",2,1,2,4,3,2,1,2,1,1,0,0,2,0
"Cayucos",35.4395808,-120.8898281,"0.15","0.544","0.033","-0.853","-0.407","0.027","0.816","-0.083","-0.157","-0.088","N/A","N/A","-0.303","N/A",2,3,2,1,1,2,3,1,1,1,0,0,1,0
"Cazadero",38.5278309,-123.1097995,"-0.805","1.136","0.178","-0.957","-0.581","N/A","0.996","N/A","-0.157","-0.088","N/A","N/A","-0.309","N/A",1,4,2,1,1,0,3,0,1,1,0,0,1,0
"Channel Islands Beach",34.1610926,-119.2252768,"-0.173","-0.703","-1.182","-0.988","0.68","1.373","-0.884","1.402","-0.157","-0.088","N/A","N/A","-0.114","N/A",1,1,1,1,3,4,1,4,1,1,0,0,1,0
"Charter Oak",34.1024828,-117.8563151,"-0.111","-0.602","-0.292","0.989","0.161","0.018","-0.789","1.163","-0.157","-0.088","N/A","N/A","-0.309","N/A",1,1,1,3,2,2,1,4,1,1,0,0,1,0
"Cherryland",37.679161,-122.1037669,"1.133","-0.358","-0.013","1.679","0.996","0.206","-0.94","1.543","-0.157","-0.088","N/A","N/A","-0.309","N/A",4,1,1,4,3,2,1,4,1,1,0,0,1,0
"Chualar",36.5711128,-121.5102955,"1.397","-0.177","0.595","2.632","0.641","-0.688","-1.044","-0.336","-0.157","-0.088","N/A","N/A","-0.309","N/A",4,1,3,4,3,1,1,1,1,1,0,0,1,0
"Citrus",34.1104556,-117.8934868,"-0.284","-0.218","-0.47","1.462","0.45","1.099","-0.397","1.254","-0.157","-0.088","N/A","N/A","-0.309","N/A",1,1,1,4,2,4,1,4,1,1,0,0,1,0
"Cleone",39.4878572,-123.7760686,"0.257","-0.402","1.034","0.478","1.363","N/A","0.186","N/A","-0.157","-0.088","N/A","N/A","-0.307","N/A",2,1,4,2,4,0,2,0,1,1,0,0,1,0
"Clyde",38.0253998,-122.0280599,"-0.263","-0.558","-0.597","0.25","-0.27","-0.368","-0.811","0.702","-0.157","-0.088","N/A","N/A","-0.309","N/A",1,1,1,2,1,1,1,3,1,1,0,0,1,0
"Comptche",39.2651343,-123.5897145,"-1.074","-2.484","1.578","0.997","0.971","N/A","-0.924","N/A","-0.153","-0.072","N/A","N/A","-0.309","N/A",1,1,4,3,3,0,1,0,1,1,0,0,1,0
"Corralitos",36.9842301,-121.7894324,"-0.699","0.196","-1.959","-0.179","-0.786","0.829","0.588","1.09","-0.157","-0.088","N/A","N/A","-0.309","N/A",1,2,1,1,1,3,3,4,1,1,0,0,1,0
"Coto de Caza",33.5970366,-117.5864845,"-0.644","-0.472","-2.928","-0.677","-0.871","-0.33","-0.776","1.149","-0.157","-0.088","N/A","N/A","-0.309","N/A",1,1,1,1,1,1,1,4,1,1,0,0,1,0
"Covelo",39.8001872,-123.2526012,"0.927","0.393","0.614","0.835","0.89","2.936","0.549","-1.269","-0.157","-0.088","N/A","N/A","-0.309","N/A",3,2,3,3,3,4,3,1,1,1,0,0,1,0
"Crest",32.8000203,-116.8670776,"-0.643","-0.323","-0.451","-0.046","-0.709","0.661","0.037","0.384","-0.157","-0.088","N/A","N/A","-0.309","N/A",1,1,1,1,1,3,2,2,1,1,0,0,1,0
"Creston",35.5170972,-120.518136,"-1.074","-0.684","2.832","0.588","-1.448","N/A","0.234","N/A","-0.157","-0.088","N/A","N/A","-0.309","N/A",1,1,4,3,1,0,2,0,1,1,0,0,1,0
"Cutten",40.7656751,-124.1445655,"-0.414","0.047","0.261","-0.418","-0.597","0.017","0.345","-1.278","-0.157","-0.088","N/A","N/A","-0.309","N/A",1,2,2,1,1,2,2,1,1,1,0,0,1,0
"Cuyama",34.9310567,-119.6148797,"-0.195","2.298","1.401","2.178","-0.09","N/A","1.849","N/A","-0.157","-0.088","N/A","N/A","-0.309","N/A",1,4,4,4,1,0,4,0,1,1,0,0,1,0
"Davenport",37.0215902,-122.1943045,"-0.887","0.457","-0.404","0.924","-0.005","N/A","0.484","N/A","-0.157","-0.088","N/A","N/A","-0.306","N/A",1,2,1,3,1,0,2,0,1,1,0,0,1,0
"Day Valley",37.0254406,-121.8559328,"-0.55","0.536","-0.941","-0.762","-0.681","-0.588","0.86","1.074","-0.157","-0.088","N/A","N/A","-0.309","N/A",1,3,1,1,1,1,3,4,1,1,0,0,1,0
"Deer Park",38.5349467,-122.4700917,"0.868","0.698","-0.767","-0.796","0.406","2.141","0.604","0.978","-0.157","-0.088","N/A","N/A","-0.309","N/A",3,3,1,1,2,4,3,3,1,1,0,0,1,0
"Del Aire",33.9167122,-118.3692917,"-0.323","-1.043","-0.736","0.621","-0.089","1.651","-1.002","1.394","-0.157","-0.088","N/A","N/A","-0.309","N/A",1,1,1,3,1,4,1,4,1,1,0,0,1,0
"Del Monte Forest",36.5838337,-121.9467143,"-0.874","1.584","-2.286","-0.709","-0.763","-0.353","1.836","0.858","-0.153","-0.088","N/A","N/A","-0.294","N/A",1,4,1,1,1,1,4,3,1,1,0,0,1,0
"Descanso",32.8695713,-116.6278741,"-0.442","0.195","0.14","-0.432","-0.729","N/A","0.352","N/A","-0.157","-0.088","N/A","N/A","-0.309","N/A",1,2,2,1,1,0,2,0,1,1,0,0,1,0
"Desert View Highlands",34.5902591,-118.1535369,"0.109","0.427","-0.123","0.965","1.113","0.362","0.185","0.475","-0.157","-0.088","N/A","N/A","-0.309","N/A",2,2,1,3,4,2,2,2,1,1,0,0,1,0
"Diablo",37.8408084,-121.9564563,"-1.074","3.653","-1.037","-1.594","-1.448","0.036","3.949","2.084","-0.157","-0.088","N/A","N/A","-0.309","N/A",1,4,1,1,1,2,4,4,1,1,0,0,1,0
"Dillon Beach",38.2434883,-122.955955,"-1.074","-0.083","-1.414","0.158","-0.865","1.268","-0.184","1.17","-0.157","-0.088","N/A","N/A","-0.136","N/A",1,1,1,2,1,4,1,4,1,1,0,0,1,0
"Discovery Bay",37.9058098,-121.608563,"-0.452","-0.292","-1.559","-0.327","-0.45","-0.791","-0.417","0.848","-0.157","-0.088","N/A","N/A","-0.309","N/A",1,1,1,1,1,1,1,3,1,1,0,0,1,0
"East Foothills",37.3825962,-121.8136881,"-0.695","-0.593","-2","0.094","-0.748","0.593","-0.006","1.259","-0.157","-0.088","N/A","N/A","-0.309","N/A",1,1,1,2,1,3,1,4,1,1,0,0,1,0
"East Los Angeles",34.0315059,-118.1685666,"1.106","-0.16","0.2","2.506","1.502","0.645","-0.789","1.637","-0.157","-0.088","N/A","N/A","-0.309","N/A",4,1,2,4,4,3,1,4,1,1,0,0,1,0
"East Pasadena",34.1367984,-118.0775355,"-0.725","-0.262","-0.881","1.013","-0.809","0.574","-0.232","1.222","-0.157","-0.088","N/A","N/A","-0.309","N/A",1,1,1,4,1,3,1,4,1,1,0,0,1,0
"East Rancho Dominguez",33.8948342,-118.1955875,"1.207","-0.037","0.207","2.571","1.414","N/A","-0.837","N/A","-0.157","-0.088","N/A","N/A","-0.309","N/A",4,1,2,4,4,0,1,0,1,1,0,0,1,0
"East Richmond Heights",37.9450812,-122.3139069,"-0.782","-0.505","-0.478","-0.131","-1.02","0.172","0.148","1.047","-0.157","-0.088","N/A","N/A","-0.309","N/A",1,1,1,1,1,2,2,4,1,1,0,0,1,0
"East San Gabriel",34.1196455,-118.0802348,"0.021","-0.066","-0.533","1.537","-0.409","1.334","-0.335","1.603","-0.157","-0.088","N/A","N/A","-0.309","N/A",2,1,1,4,1,4,1,4,1,1,0,0,1,0
"East Whittier",33.9243733,-117.9887261,"-0.027","-0.201","-0.406","0.475","0.163","N/A","-0.168","N/A","-0.157","-0.088","N/A","N/A","N/A","N/A",1,1,1,2,2,0,1,0,1,1,0,0,0,0
"Edna",35.2107855,-120.6059671,"0.371","2.174","-0.647","-0.676","-0.506","N/A","1.97","N/A","-0.157","-0.088","N/A","N/A","-0.309","N/A",2,4,1,1,1,0,4,0,1,1,0,0,1,0
"Eldridge",38.3338866,-122.5065184,"-0.205","-1.082","-0.414","-0.938","-0.791","1.752","-1.023","0.889","-0.157","-0.088","N/A","N/A","-0.309","N/A",1,1,1,1,1,4,1,3,1,1,0,0,1,0
"El Granada",37.521199,-122.4709046,"-0.956","-0.838","-1.448","-0.261","-0.924","0.1","-0.814","1.34","-0.149","-0.088","N/A","N/A","-0.302","N/A",1,1,1,1,1,2,1,4,1,1,0,0,1,0
"Elizabeth Lake",34.6564882,-118.379847,"-0.683","-0.036","-0.09","-0.26","-0.138","N/A","-0.269","N/A","-0.157","-0.088","N/A","N/A","-0.309","N/A",1,1,1,1,1,0,1,0,1,1,0,0,1,0
"Elkhorn",36.8106726,-121.7186988,"-1.074","0.792","-0.73","-0.514","-0.55","-0.765","0.671","-0.068","-0.157","-0.088","N/A","N/A","-0.239","N/A",1,3,1,1,1,1,3,1,1,1,0,0,1,0
"Elmira",38.3523279,-121.9077194,"2.401","-0.426","1.108","0.98","0.674","N/A","-0.483","-0.04","-0.157","-0.088","N/A","N/A","-0.309","N/A",4,1,4,3,3,0,1,1,1,1,0,0,1,0
"El Rio",34.2452858,-119.1568343,"0.642","0.068","-0.198","1.971","1.193","0.809","-0.174","0.588","-0.157","-0.088","N/A","N/A","-0.309","N/A",3,2,1,4,4,3,1,3,1,1,0,0,1,0
"El Sobrante",37.9800515,-122.3068108,"-0.152","-0.772","-0.343","0.629","-0.146","0.749","-0.497","0.846","-0.153","-0.088","N/A","N/A","-0.309","N/A",1,1,1,3,1,3,1,3,1,1,0,0,1,0
"El Verano",38.2974647,-122.4915444,"-0.994","-0.458","-0.465","0.071","-0.516","0.644","-0.021","0.811","-0.157","-0.088","N/A","N/A","-0.309","N/A",1,1,1,2,1,3,1,3,1,1,0,0,1,0
"Emerald Lake Hills",37.465282,-122.265898,"-0.94","-0.593","-2.246","-0.717","-1.124","-0.519","-0.397","2.562","-0.157","-0.088","N/A","N/A","-0.309","N/A",1,1,1,1,1,1,1,4,1,1,0,0,1,0
"Eucalyptus Hills",32.8851767,-116.9449826,"-0.896","-0.715","-0.787","0.342","-0.499","N/A","-0.561","N/A","-0.157","-0.088","N/A","N/A","-0.309","N/A",1,1,1,2,1,0,1,0,1,1,0,0,1,0
"Fairbanks Ranch",32.9915955,-117.186611,"-0.078","0.877","-1.454","-0.904","-0.245","-0.906","-0.134","2.745","-0.157","-0.088","N/A","N/A","-0.309","N/A",1,3,1,1,1,1,1,4,1,1,0,0,1,0
"Fairhaven",40.7908802,-124.2047484,"-0.665","-0.314","0.674","-0.831","0.827","N/A","-0.502","N/A","-0.157","-0.088","N/A","N/A","N/A","N/A",1,1,3,1,3,0,1,0,1,1,0,0,0,0
"Fairview",37.6776822,-122.0444079,"-0.627","-0.411","-1.057","0.787","-0.774","0.254","-0.044","0.945","-0.157","-0.088","N/A","N/A","-0.309","N/A",1,1,1,3,1,2,1,3,1,1,0,0,1,0
"Fallbrook",33.3747015,-117.2217238,"0.264","0.133","-0.233","0.72","0.043","0.595","0.046","0.507","-0.157","-0.088","N/A","N/A","-0.309","N/A",2,2,1,3,2,3,2,3,1,1,0,0,1,0
"Felton",37.0392214,-122.0804734,"-0.905","-0.74","-0.594","-0.854","-0.484","0.607","-0.74","0.945","-0.153","-0.088","N/A","N/A","-0.309","N/A",1,1,1,1,1,3,1,3,1,1,0,0,1,0
"Fetters Hot Springs-Agua Caliente",38.3275042,-122.4871374,"0.692","-0.579","0.038","1.099","-0.173","1.195","-0.616","0.682","-0.157","-0.088","N/A","N/A","-0.309","N/A",3,1,2,4,1,4,1,3,1,1,0,0,1,0
"Fieldbrook",40.9729581,-124.0285865,"0.238","0.664","-0.25","-0.805","-0.178","N/A","0.582","N/A","-0.157","-0.088","N/A","N/A","-0.309","N/A",2,3,1,1,1,0,3,0,1,1,0,0,1,0
"Fields Landing",40.7242363,-124.2186025,"-1.074","-0.133","1.661","-0.122","0.243","N/A","-0.796","N/A","0.125","0.697","N/A","N/A","1.147","N/A",1,1,4,1,2,0,1,0,2,3,0,0,4,0
"Florence-Graham",33.9681594,-118.2446671,"1.785","-0.2","0.301","2.687","1.731","1.299","-1.049","1.743","-0.157","-0.088","N/A","N/A","-0.309","N/A",4,1,2,4,4,4,1,4,1,1,0,0,1,0
"Forestville",38.4824914,-122.8898837,"-0.634","-0.556","0.195","-0.734","-0.318","0.074","0.174","0.466","-0.157","-0.088","N/A","N/A","-0.309","N/A",1,1,2,1,1,2,2,2,1,1,0,0,1,0
"Fort Dick",41.8695255,-124.1671978,"-1.074","1.398","1.079","-0.824","-0.581","N/A","1.304","N/A","-0.157","-0.088","N/A","N/A","N/A","N/A",1,4,4,1,1,0,4,0,1,1,0,0,0,0
"Freedom",36.940222,-121.7952695,"0.473","-0.38","0.041","2.171","0.72","0.266","-0.489","0.815","-0.157","-0.088","N/A","N/A","-0.309","N/A",2,1,2,4,3,2,1,3,1,1,0,0,1,0
"Fruitdale",37.3119242,-121.935678,"-0.704","-0.682","-0.802","0.012","-0.442","1.303","-0.188","1.3","-0.157","-0.088","N/A","N/A","-0.309","N/A",1,1,1,2,1,4,1,4,1,1,0,0,1,0
"Fulton",38.4937089,-122.773417,"2.791","-0.029","1.661","1.803","2.254","N/A","-0.308","N/A","-0.157","-0.088","N/A","N/A","-0.309","N/A",4,1,4,4,4,0,1,0,1,1,0,0,1,0
"Garberville",40.1003058,-123.7943149,"1.678","-0.892","0.513","-0.22","0.875","N/A","-1.007","N/A","-0.157","-0.088","N/A","N/A","-0.309","N/A",4,1,3,1,3,0,1,0,1,1,0,0,1,0
"Garden Farms",35.4157817,-120.6140342,"-1.074","2.001","1.115","0.159","-1.448","N/A","1.541","N/A","-0.157","-0.088","N/A","N/A","-0.309","N/A",1,4,4,2,1,0,4,0,1,1,0,0,1,0
"Garey",34.8858212,-120.3137504,"-0.714","-1.393","1.428","2.398","1.894","N/A","-1.437","N/A","-0.157","-0.088","N/A","N/A","-0.309","N/A",1,1,4,4,4,0,1,0,1,1,0,0,1,0
"Gasquet",41.8360753,-123.9760308,"-0.636","2.359","1.728","-0.032","0.339","N/A","2.401","N/A","-0.157","-0.088","N/A","N/A","-0.309","N/A",1,4,4,1,2,0,4,0,1,1,0,0,1,0
"Geyserville",38.7173139,-122.9034234,"0.394","-0.226","-0.113","0.871","-0.332","N/A","-0.265","N/A","-0.157","-0.088","N/A","N/A","-0.309","N/A",2,1,1,3,1,0,1,0,1,1,0,0,1,0
"Glen Ellen",38.3553677,-122.543877,"-1.074","-1.409","-1.472","-1.337","-0.893","0.956","-0.289","0.93","-0.157","-0.088","N/A","N/A","-0.309","N/A",1,1,1,1,1,3,1,3,1,1,0,0,1,0
"Granite Hills",32.8032797,-116.9055155,"0.088","0.187","-2.374","-0.381","-0.263","0.687","0.973","0.716","-0.157","-0.088","N/A","N/A","-0.309","N/A",2,2,1,1,1,3,3,3,1,1,0,0,1,0
"Graton",38.4375168,-122.8659876,"-0.055","0.021","-0.155","-0.216","0.118","0.936","0.089","0.64","-0.157","-0.088","N/A","N/A","-0.309","N/A",1,2,1,1,2,3,2,3,1,1,0,0,1,0
"Green Valley (Los Angeles County)",34.6174149,-118.4050226,"-0.397","-0.743","0.135","-0.535","-0.357","N/A","-0.838","N/A","-0.157","-0.088","N/A","N/A","-0.309","N/A",1,1,2,1,1,0,1,0,1,1,0,0,1,0
"Green Valley (Solano County)",38.2638396,-122.162493,"-1.074","0.655","-0.083","-0.418","-1.407","-1.648","1.378","0.872","-0.157","-0.088","N/A","N/A","-0.309","N/A",1,3,1,1,1,1,4,3,1,1,0,0,1,0
"Guerneville",38.5171652,-122.989897,"0.428","0.026","0.11","-0.791","0.028","0.298","0.117","0.408","-0.157","-0.088","N/A","N/A","-0.309","N/A",2,2,2,1,2,2,2,2,1,1,0,0,1,0
"Hacienda Heights",33.9958532,-117.9730226,"-0.27","0.114","-0.763","1.58","-0.227","0.981","0.104","0.971","-0.157","-0.088","N/A","N/A","-0.309","N/A",1,2,1,4,1,3,2,3,1,1,0,0,1,0
"Harbison Canyon",32.8272739,-116.8380698,"-0.397","-0.132","-0.591","-0.113","-0.427","0.061","-0.117","0.373","-0.157","-0.088","N/A","N/A","-0.309","N/A",1,1,1,1,1,2,1,2,1,1,0,0,1,0
"Hartley",38.4203928,-121.9508422,"-0.731","0.517","-0.293","-0.263","-0.204","N/A","1.116","N/A","-0.157","-0.088","N/A","N/A","-0.309","N/A",1,3,1,1,1,0,4,0,1,1,0,0,1,0
"Hasley Canyon",34.4815987,-118.6666891,"0.24","-0.357","-0.05","-0.352","0.03","N/A","-0.412","N/A","-0.157","-0.088","N/A","N/A","-0.309","N/A",2,1,1,1,2,0,1,0,1,1,0,0,1,0
"Hidden Meadows",33.2236343,-117.1198258,"-0.61","1.147","-1.334","-0.35","-0.772","0.133","1.064","0.531","-0.157","-0.088","N/A","N/A","-0.309","N/A",1,4,1,1,1,2,4,3,1,1,0,0,1,0
"Highlands-Baywood Park",37.5226444,-122.3447654,"-0.762","-0.311","-1.926","-0.143","-0.924","0.322","-0.044","2.351","-0.157","-0.088","N/A","N/A","-0.309","N/A",1,1,1,1,1,2,1,4,1,1,0,0,1,0
"Hiouchi",41.7936643,-124.0661134,"-0.326","0.043","2.022","-1.226","-1.076","N/A","0.219","N/A","-0.157","-0.088","N/A","N/A","-0.309","N/A",1,2,4,1,1,0,2,0,1,1,0,0,1,0
"Hoopa",41.0796391,-123.6976603,"2.661","0.375","1.677","1.385","1.589","N/A","-0.255","N/A","-0.157","-0.088","N/A","N/A","N/A","N/A",4,2,4,4,4,0,1,0,1,1,0,0,0,0
"Hopland",38.9688302,-123.1168992,"1.886","-0.359","0.425","1.112","1.625","N/A","-0.657","N/A","-0.157","-0.088","N/A","N/A","-0.309","N/A",4,1,2,4,4,0,1,0,1,1,0,0,1,0
"Humboldt Hill",40.722316,-124.1973808,"-0.596","-0.187","0.581","-0.046","-0.087","-0.135","-0.807","-1.553","-0.157","-0.088","N/A","N/A","-0.078","N/A",1,1,3,1,1,1,1,1,1,1,0,0,1,0
"Hydesville",40.5578747,-124.0822499,"-0.115","-0.166","0.48","-0.745","-0.489","0.53","0.365","-1.249","-0.157","-0.088","N/A","N/A","-0.309","N/A",1,1,2,1,1,3,2,1,1,1,0,0,1,0
"Indianola",40.8099643,-124.0784473,"1.174","-0.017","1.641","-0.704","1.479","N/A","-0.406","N/A","-0.157","-0.088","N/A","N/A","0.092","N/A",4,1,4,1,4,0,1,0,1,1,0,0,2,0
"Interlaken",36.9506036,-121.7375192,"0.505","-0.342","-0.538","1.82","0.284","0.311","-0.63","0.626","-0.157","-0.088","N/A","N/A","-0.309","N/A",3,1,1,4,2,2,1,3,1,1,0,0,1,0
"Inverness",38.0827964,-122.8549425,"-0.474","1.073","-0.496","-1.359","-0.928","-0.106","1.35","0.953","-0.13","-0.068","N/A","N/A","-0.107","N/A",1,4,1,1,1,1,4,3,1,1,0,0,1,0
"Isla Vista",34.414116,-119.8578739,"1.617","-0.106","-0.127","-0.415","2.363","-2.375","-1.6","1.522","-0.157","-0.088","N/A","N/A","-0.29","N/A",4,1,1,1,4,1,1,4,1,1,0,0,1,0
"Jacumba",32.6364781,-116.190706,"-1.074","2.679","1.557","-0.251","-1.448","N/A","4.106","N/A","-0.157","-0.088","N/A","N/A","-0.309","N/A",1,4,4,1,1,0,4,0,1,1,0,0,1,0
"Jamul",32.71841,-116.870862,"-0.861","-0.116","-1.381","-0.865","-0.663","0.364","0.193","0.57","-0.157","-0.088","N/A","N/A","-0.309","N/A",1,1,1,1,1,2,2,3,1,1,0,0,1,0
"Jenner",38.459034,-123.1274672,"-1.074","-0.304","1.999","-1.594","-1.448","N/A","-0.506","N/A","-0.157","-0.088","N/A","N/A","-0.248","N/A",1,1,4,1,1,0,1,0,1,1,0,0,1,0
"Julian",33.0735009,-116.5888828,"-0.903","1.311","0.243","-1.32","-0.975","-0.078","1.487","-0.19","-0.157","-0.088","N/A","N/A","-0.309","N/A",1,4,2,1,1,1,4,1,1,1,0,0,1,0
"Kensington",37.9103035,-122.2827461,"-0.744","-0.147","-1.936","-0.603","-0.782","0.832","0.349","1.532","-0.157","-0.088","N/A","N/A","-0.309","N/A",1,1,1,1,1,3,2,4,1,1,0,0,1,0
"Kentfield",37.9354256,-122.5587937,"-0.652","-0.067","-2.034","-0.766","-0.964","-0.557","-0.18","2.596","-0.138","-0.087","N/A","N/A","-0.264","N/A",1,1,1,1,1,1,1,4,1,1,0,0,1,0
"Kenwood",38.4154067,-122.5387529,"-1.074","-0.162","0.781","-1.033","-1.069","N/A","0.495","N/A","-0.157","-0.088","N/A","N/A","-0.309","N/A",1,1,3,1,1,0,2,0,1,1,0,0,1,0
"Klamath",41.5322042,-124.0064129,"1.583","1.303","1.486","0.378","1.835","-1.242","1.011","-1.546","0.007","0.143","N/A","N/A","-0.293","N/A",4,4,4,2,4,1,4,1,2,2,0,0,1,0
"Knightsen",37.9624258,-121.6485795,"-0.003","0.691","-0.912","-0.283","-0.289","0.299","0.74","0.578","-0.157","-0.088","N/A","N/A","-0.309","N/A",1,3,1,1,1,2,3,3,1,1,0,0,1,0
"La Crescenta-Montrose",34.233016,-118.2357737,"-0.492","-0.424","-0.961","0.312","-0.552","1.326","-0.49","1.278","-0.157","-0.088","N/A","N/A","-0.309","N/A",1,1,1,2,1,4,1,4,1,1,0,0,1,0
"Ladera",37.3996004,-122.1990973,"-0.953","0.211","-0.699","-0.61","-1.131","N/A","-0.024","N/A","-0.157","-0.088","N/A","N/A","-0.309","N/A",1,2,1,1,1,0,1,0,1,1,0,0,1,0
"Ladera Heights",33.9963134,-118.3757966,"-0.52","-0.072","-1.309","0.546","-0.366","-0.339","0.271","1.234","-0.157","-0.088","N/A","N/A","-0.309","N/A",1,1,1,3,1,1,2,4,1,1,0,0,1,0
"Ladera Ranch",33.5493559,-117.6415031,"-0.753","-1.153","-1.967","0.158","-0.711","N/A","-1.506","N/A","-0.157","-0.088","N/A","N/A","-0.309","N/A",1,1,1,2,1,0,1,0,1,1,0,0,1,0
"Lagunitas-Forest Knolls",38.0180262,-122.6913028,"-1.074","-0.184","-0.839","-0.637","-0.801","0.51","0.053","0.783","-0.157","-0.088","N/A","N/A","-0.309","N/A",1,1,1,1,1,3,2,3,1,1,0,0,1,0
"La Honda",37.317705,-122.2584296,"-0.689","-0.54","-0.198","-1.205","-0.452","N/A","-0.056","N/A","-0.157","-0.088","N/A","N/A","-0.309","N/A",1,1,1,1,1,0,1,0,1,1,0,0,1,0
"Lake Hughes",34.6824154,-118.4519379,"1.986","1.221","0.546","-0.057","0.42","N/A","0.26","N/A","-0.157","-0.088","N/A","N/A","-0.309","N/A",4,4,3,1,2,0,2,0,1,1,0,0,1,0
"Lake Los Angeles",34.609839,-117.8303369,"1.947","0.91","0.127","1.158","1.405","-0.215","-0.147","-0.09","-0.157","-0.088","N/A","N/A","-0.309","N/A",4,3,2,4,4,1,1,1,1,1,0,0,1,0
"Lake Nacimiento",35.730962,-120.8695164,"-0.494","0.594","0.145","-0.18","-0.355","1.256","0.143","-0.975","-0.157","-0.088","N/A","N/A","-0.309","N/A",1,3,2,1,1,4,2,1,1,1,0,0,1,0
"Lake San Marcos",33.1223616,-117.2085756,"0.145","1.719","-0.668","-0.225","-0.473","1.442","2.058","0.821","-0.157","-0.088","N/A","N/A","-0.309","N/A",2,4,1,1,1,4,4,3,1,1,0,0,1,0
"Lake Sherwood",34.1324155,-118.8850395,"-1.042","0.242","-3.626","-1.047","-1.161","N/A","0.472","N/A","-0.157","-0.088","N/A","N/A","-0.309","N/A",1,2,1,1,1,0,2,0,1,1,0,0,1,0
"Lakeside",32.856617,-116.9042369,"-0.013","-0.13","0.089","-0.038","0.105","-0.082","-0.274","0.551","-0.149","-0.088","N/A","N/A","-0.309","N/A",1,1,2,1,2,1,1,3,1,1,0,0,1,0
"La Presa",32.7123147,-117.0037099,"0.235","-0.273","-0.218","1.154","0.48","1.134","-0.224","0.795","-0.157","-0.088","N/A","N/A","-0.309","N/A",2,1,1,4,2,4,1,3,1,1,0,0,1,0
"Larkfield-Wikiup",38.5129719,-122.7536006,"-0.473","-0.123","-0.582","0.021","-0.284","-0.101","-0.152","0.653","-0.157","-0.088","N/A","N/A","-0.309","N/A",1,1,1,2,1,1,1,3,1,1,0,0,1,0
"La Selva Beach",36.9273747,-121.8444038,"-0.619","0.127","-1.12","-0.161","-0.415","N/A","0.356","N/A","-0.157","-0.088","N/A","N/A","-0.308","N/A",1,2,1,1,1,0,2,0,1,1,0,0,1,0
"Las Flores",33.5838573,-117.6235705,"-0.848","-1.21","-1.592","0.247","-0.94","0.327","-1.806","0.889","-0.157","-0.088","N/A","N/A","-0.309","N/A",1,1,1,2,1,2,1,3,1,1,0,0,1,0
"Las Lomas",36.8688131,-121.7316111,"0.806","-0.952","-0.17","3.001","1.219","0.249","-1.444","0.147","-0.157","-0.088","N/A","N/A","0.222","N/A",3,1,1,4,4,2,1,2,1,1,0,0,2,0
"Laytonville",39.662256,-123.4950147,"1.678","0.346","1.178","-0.475","2.184","1.84","-0.234","-1.333","-0.157","-0.088","N/A","N/A","-0.309","N/A",4,2,4,1,4,4,1,1,1,1,0,0,1,0
"Leggett",39.8635391,-123.7251757,"2.199","0.912","1.804","3.018","1.413","N/A","-0.941","N/A","-0.157","-0.088","N/A","N/A","-0.309","N/A",4,3,4,4,4,0,1,0,1,1,0,0,1,0
"Lennox",33.9380636,-118.3585422,"1.256","-0.799","0.286","2.658","1.604","0.805","-1.317","1.962","-0.157","-0.088","N/A","N/A","-0.309","N/A",4,1,2,4,4,3,1,4,1,1,0,0,1,0
"Leona Valley",34.608144,-118.3013217,"-0.156","0.3","-0.513","-0.925","-0.265","N/A","0.461","N/A","-0.157","-0.088","N/A","N/A","-0.309","N/A",1,2,1,1,1,0,2,0,1,1,0,0,1,0
"Lexington Hills",37.1590159,-121.9887929,"-0.962","-1.312","-1.216","-0.713","-0.827","-0.063","-1.042","1.016","-0.157","-0.088","N/A","N/A","-0.309","N/A",1,1,1,1,1,1,1,4,1,1,0,0,1,0
"Little River",39.2702854,-123.7817494,"6.764","2.614","1.791","0.135","2.264","N/A","0.194","N/A","-0.13","0.034","N/A","N/A","-0.304","N/A",4,4,4,2,4,0,2,0,1,2,0,0,1,0
"Littlerock",34.525126,-117.9816314,"0.957","1.172","-0.005","2.91","1.236","2.492","-0.105","0.109","-0.157","-0.088","N/A","N/A","-0.309","N/A",3,4,1,4,4,4,1,2,1,1,0,0,1,0
"Live Oak",36.9860244,-121.9804135,"-0.217","-0.314","-0.399","0.056","-0.256","-0.243","-0.319","1.404","-0.157","-0.088","N/A","N/A","-0.309","N/A",1,1,1,2,1,1,1,4,1,1,0,0,1,0
"Lockwood",35.9404553,-121.0790725,"1.727","-0.781","1.66","1.643","0.926","N/A","-0.841","N/A","-0.157","-0.088","N/A","N/A","-0.309","N/A",4,1,4,4,3,0,1,0,1,1,0,0,1,0
"Loleta",40.6408852,-124.2225561,"0.701","-0.856","1.002","0.984","0.853","N/A","-1.453","N/A","-0.13","-0.054","N/A","N/A","-0.266","N/A",3,1,4,3,3,0,1,0,1,1,0,0,1,0
"Loma Mar",37.2657842,-122.3006925,"5.027","0.721","1.791","0.942","6.152","N/A","-0.908","N/A","-0.157","-0.088","N/A","N/A","-0.309","N/A",4,3,4,3,4,0,1,0,1,1,0,0,1,0
"Lompico",37.1146189,-122.0527676,"-0.962","-0.404","0.645","-0.43","-0.612","N/A","-0.621","N/A","-0.157","-0.088","N/A","N/A","-0.309","N/A",1,1,3,1,1,0,1,0,1,1,0,0,1,0
"Los Alamos",34.7299252,-120.269909,"-0.025","-0.825","0.074","0.211","1.331","-1.273","-0.768","-0.28","-0.157","-0.088","N/A","N/A","-0.309","N/A",1,1,2,2,4,1,1,1,1,1,0,0,1,0
"Los Berros",35.0809068,-120.5450358,"-1.074","1.634","0.907","0.338","0.068","N/A","1.255","N/A","-0.157","-0.088","N/A","N/A","-0.309","N/A",1,4,3,2,2,0,4,0,1,1,0,0,1,0
"Los Olivos",34.6622173,-120.1173869,"-0.684","-0.111","-1.101","-0.862","-0.764","N/A","0.41","N/A","-0.157","-0.088","N/A","N/A","-0.309","N/A",1,1,1,1,1,0,2,0,1,1,0,0,1,0
"Los Osos",35.3070923,-120.8231617,"-0.048","0.329","-0.168","-0.445","-0.455","N/A","0.468","N/A","-0.141","-0.088","N/A","N/A","-0.278","N/A",1,2,1,1,1,0,2,0,1,1,0,0,1,0
"Los Ranchos",35.2126991,-120.6280302,"-1.074","0.839","-0.395","-1.045","-0.994","N/A","1.053","N/A","-0.157","-0.088","N/A","N/A","-0.309","N/A",1,3,1,1,1,0,4,0,1,1,0,0,1,0
"Loyola",37.3501831,-122.0981158,"-0.881","0.406","-3.054","-0.476","-1.085","-0.848","0.083","2.691","-0.157","-0.088","N/A","N/A","-0.309","N/A",1,2,1,1,1,1,2,4,1,1,0,0,1,0
"Lucas Valley-Marinwood",38.0405084,-122.5764818,"-0.576","0.065","-1.499","-0.333","-0.894","-0.456","0.477","1.315","-0.157","-0.088","N/A","N/A","-0.309","N/A",1,2,1,1,1,1,2,4,1,1,0,0,1,0
"McKinleyville",40.9515707,-124.077357,"0.092","-0.187","0.3","-0.27","0.283","1.521","-0.17","-1.475","-0.138","-0.088","N/A","N/A","-0.285","N/A",2,1,2,1,2,4,1,1,1,1,0,0,1,0
"Manchester",38.9743844,-123.6909611,"-0.462","-0.984","1.187","-0.154","-0.492","N/A","-0.987","N/A","-0.157","-0.088","N/A","N/A","-0.309","N/A",1,1,4,1,1,0,1,0,1,1,0,0,1,0
"Manila",40.8508972,-124.1631934,"0.196","-0.747","0.418","-0.318","0.616","N/A","-0.605","N/A","-0.157","-0.088","N/A","N/A","-0.109","N/A",2,1,2,1,3,0,1,0,1,1,0,0,1,0
"Marina del Rey",33.9764635,-118.4552672,"0.171","-1.332","-1.427","-0.39","-0.461","4.009","-1.662","1.555","0.211","-0.056","N/A","N/A","-0.153","N/A",2,1,1,1,1,4,1,4,2,1,0,0,1,0
"Marin City",37.8711561,-122.5137358,"0.798","-0.431","-0.239","1.279","0.474","N/A","-0.906","N/A","-0.157","-0.088","N/A","N/A","-0.211","N/A",3,1,1,4,2,0,1,0,1,1,0,0,1,0
"Mayflower Village",34.1159096,-118.0095863,"-0.081","-0.333","-0.471","1.285","-0.494","1.775","-0.28","1.263","-0.157","-0.088","N/A","N/A","-0.309","N/A",1,1,1,4,1,4,1,4,1,1,0,0,1,0
"Meiners Oaks",34.4504852,-119.2731333,"0.124","-0.661","-0.319","0.153","0.134","1.592","-0.012","0.691","-0.157","-0.088","N/A","N/A","-0.309","N/A",2,1,1,2,2,4,1,3,1,1,0,0,1,0
"Mendocino",39.3114038,-123.8125523,"-1.074","-0.19","-0.089","-1.153","-1.448","2.473","0.387","-0.747","-0.157","-0.088","N/A","N/A","-0.294","N/A",1,1,1,1,1,4,2,1,1,1,0,0,1,0
"Midway City",33.7451442,-117.9848055,"1.725","0.296","0.045","2.313","1.104","N/A","-0.358","N/A","-0.157","-0.088","N/A","N/A","-0.309","N/A",4,2,2,4,4,0,1,0,1,1,0,0,1,0
"Mira Monte",34.4288996,-119.2833997,"-0.203","0.215","0.037","-0.358","-0.207","0.027","0.656","0.549","-0.157","-0.088","N/A","N/A","-0.309","N/A",1,2,2,1,1,2,3,3,1,1,0,0,1,0
"Miranda",40.2286868,-123.8175844,"1.078","-0.735","0.691","-0.208","0.57","N/A","-1.202","N/A","-0.157","-0.088","N/A","N/A","-0.309","N/A",4,1,3,1,3,0,1,0,1,1,0,0,1,0
"Mission Canyon",34.4527127,-119.7137501,"-0.522","-0.262","-1.454","-1.021","-0.928","0.501","0.168","1.127","-0.157","-0.088","N/A","N/A","-0.309","N/A",1,1,1,1,1,3,2,4,1,1,0,0,1,0
"Mission Hills",34.6887795,-120.4397498,"-0.468","-0.091","-0.636","-0.269","0.258","1.638","0.104","-0.008","-0.157","-0.088","N/A","N/A","-0.309","N/A",1,1,1,1,2,4,2,1,1,1,0,0,1,0
"Montalvin Manor",37.9975826,-122.3300925,"0.115","0.466","-0.01","1.803","0.515","N/A","0.615","N/A","-0.157","-0.088","N/A","N/A","-0.269","N/A",2,2,1,4,3,0,3,0,1,1,0,0,1,0
"Montara",37.5482577,-122.4923687,"-0.61","0.255","-1.232","-0.434","-1.108","0.782","0.475","1.266","-0.157","-0.088","N/A","N/A","-0.307","N/A",1,2,1,1,1,3,2,4,1,1,0,0,1,0
"Montecito",34.4382292,-119.6284211,"-0.554","1.343","-1.911","-0.85","-0.588","-0.568","1.128","1.977","-0.157","-0.088","N/A","N/A","-0.308","N/A",1,4,1,1,1,1,4,4,1,1,0,0,1,0
"Monte Rio",38.4736108,-123.0261783,"0.395","0.115","0.374","-1.017","1.844","0.897","0.092","0.321","-0.157","-0.088","N/A","N/A","-0.293","N/A",2,2,2,1,4,3,2,2,1,1,0,0,1,0
"Moskowite Corner",38.4438743,-122.1919904,"-1.074","2.274","2.389","-1.531","0.97","N/A","1.445","N/A","-0.157","-0.088","N/A","N/A","-0.309","N/A",1,4,4,1,3,0,4,0,1,1,0,0,1,0
"Moss Beach",37.5183739,-122.5034816,"-0.624","-0.24","-0.597","0.14","-0.777","-0.792","-0.146","1.422","-0.153","-0.088","N/A","N/A","-0.268","N/A",1,1,1,2,1,1,1,4,1,1,0,0,1,0
"Moss Landing",36.8053889,-121.786577,"-1.074","-1.422","1.167","-1.055","-0.979","N/A","-1.301","-0.772","2.306","41.261","N/A","N/A","0.62","N/A",1,1,4,1,1,0,1,1,4,4,0,0,3,0
"Mountain House",37.774017,-121.5452634,"-0.49","-0.76","-1.879","0.765","-0.733","N/A","-1.409","N/A","-0.157","-0.088","N/A","N/A","N/A","N/A",1,1,1,3,1,0,1,0,1,1,0,0,0,0
"Mountain View CDP",38.0092052,-122.1168495,"-1.074","-1.835","-0.249","0.236","-0.002","0.502","-1.942","1.231","-0.157","-0.088","N/A","N/A","-0.309","N/A",1,1,1,2,1,3,1,4,1,1,0,0,1,0
"Mount Hermon",37.0510339,-122.0533473,"0.127","-1.623","0.571","0.526","0.07","N/A","-1.497","N/A","-0.157","-0.088","N/A","N/A","-0.309","N/A",2,1,3,3,2,0,1,0,1,1,0,0,1,0
"Mount Laguna",32.8711048,-116.424687,"-1.074","2.629","2.301","-0.222","-1.448","N/A","-0.795","N/A","-0.157","N/A","N/A","N/A","-0.309","N/A",1,4,4,1,1,0,1,0,1,0,0,0,1,0
"Muir Beach",37.8615645,-122.5803215,"-1.074","-0.265","-0.949","-1.362","-1.015","-1.79","-0.426","1.778","-0.157","-0.088","N/A","N/A","-0.253","N/A",1,1,1,1,1,1,1,4,1,1,0,0,1,0
"Myers Flat",40.2654783,-123.875548,"-1.074","2.629","4.247","-0.222","-1.448","N/A","-0.795","N/A","-0.157","N/A","N/A","N/A","-0.309","N/A",1,4,4,1,1,0,1,0,1,0,0,0,1,0
"Myrtletown",40.7887307,-124.1306576,"-0.375","-0.12","-0.034","-0.274","0.555","0.764","0.345","-1.32","-0.157","-0.088","N/A","N/A","0.046","N/A",1,1,1,1,3,3,2,1,1,1,0,0,2,0
"New Cuyama",34.9421482,-119.6807618,"-0.288","1.038","0.407","0.696","0.702","N/A","-0.329","N/A","-0.157","-0.088","N/A","N/A","-0.309","N/A",1,4,2,3,3,0,1,0,1,1,0,0,1,0
"Nicasio",38.0606215,-122.7008217,"-0.306","-1.925","-0.491","0.168","-1.024","N/A","-1.187","N/A","-0.157","-0.088","N/A","N/A","-0.309","N/A",1,1,1,2,1,0,1,0,1,1,0,0,1,0
"Nipomo",35.0306599,-120.4977565,"-0.153","0.007","-0.232","0.265","-0.004","0.963","0.057","0.051","-0.126","-0.087","N/A","N/A","-0.309","N/A",1,2,1,2,1,3,2,2,1,1,0,0,1,0
"Norris Canyon",37.7460418,-121.9887827,"-1.074","-0.869","-1.454","0.549","-0.881","N/A","-1.326","N/A","-0.157","-0.088","N/A","N/A","-0.309","N/A",1,1,1,3,1,0,1,0,1,1,0,0,1,0
"North El Monte",34.1029467,-118.0238383,"0.515","0.064","-0.748","0.935","-0.212","2.655","-0.304","1.393","-0.157","-0.088","N/A","N/A","-0.309","N/A",3,2,1,3,1,4,1,4,1,1,0,0,1,0
"North Fair Oaks",37.4753718,-122.2034692,"0.503","-0.938","-0.537","2.037","0.305","0.468","-1.159","2.229","-0.157","-0.088","N/A","N/A","-0.304","N/A",3,1,1,4,2,2,1,4,1,1,0,0,1,0
"North Gate",37.9061529,-121.9981843,"-0.199","0.214","-0.756","-0.357","0.229","N/A","-0.672","N/A","-0.157","-0.088","N/A","N/A","-0.309","N/A",1,2,1,1,2,0,1,0,1,1,0,0,1,0
"North Richmond",37.9652707,-122.3706676,"1.608","-0.937","-0.187","2.722","0.814","N/A","-1.205","N/A","-0.157","-0.088","N/A","N/A","-0.116","N/A",4,1,1,4,3,0,1,0,1,1,0,0,1,0
"North Tustin",33.7644205,-117.7944833,"-0.8","0.101","-1.724","-0.413","-0.869","N/A","0.32","0.913","-0.157","-0.088","N/A","N/A","-0.309","N/A",1,2,1,1,1,0,2,3,1,1,0,0,1,0
"Oak Park",34.184973,-118.7669284,"-0.661","-0.63","-1.4","-0.31","-0.703","0.533","-0.704","0.943","-0.157","-0.088","N/A","N/A","-0.309","N/A",1,1,1,1,1,3,1,3,1,1,0,0,1,0
"Oak Shores",35.7607589,-120.9828249,"-0.884","1.389","0.53","-1.096","-0.833","N/A","2.493","N/A","-0.157","-0.088","N/A","N/A","-0.309","N/A",1,4,3,1,1,0,4,0,1,1,0,0,1,0
"Oak View",34.3989709,-119.29757,"-0.772","-0.288","-0.475","0.074","-0.088","0.662","-0.18","0.566","-0.157","-0.088","N/A","N/A","-0.309","N/A",1,1,1,2,1,3,1,3,1,1,0,0,1,0
"Oakville",38.4383727,-122.4067728,"-1.074","-0.944","1.375","1.331","1.896","N/A","-2.52","N/A","-0.157","-0.088","N/A","N/A","-0.309","N/A",1,1,4,4,4,0,1,0,1,1,0,0,1,0
"Occidental",38.4003784,-122.9349498,"0.726","0.665","-0.477","-1.396","-0.826","-0.586","1.538","0.498","-0.157","-0.088","N/A","N/A","-0.309","N/A",3,3,1,1,1,1,4,2,1,1,0,0,1,0
"Oceano",35.1016077,-120.608217,"0.423","0.119","0.504","0.696","0.518","-0.122","-0.063","0.076","-0.157","-0.088","N/A","N/A","-0.308","N/A",2,2,3,3,3,1,1,2,1,1,0,0,1,0
"Orcutt",34.8672682,-120.4235593,"-0.417","-0.205","-0.486","-0.098","-0.369","0.33","0.047","0.141","-0.157","-0.088","N/A","N/A","-0.309","N/A",1,1,1,1,1,2,2,2,1,1,0,0,1,0
"Orick",41.2902156,-124.0703021,"1.465","0.634","1.129","-0.237","0.887","N/A","0.315","N/A","-0.073","0.16","N/A","N/A","-0.258","N/A",4,3,4,1,3,0,2,0,1,2,0,0,1,0
"Pacheco",37.9878378,-122.0699036,"-0.327","-0.658","0.574","0.434","0.203","-1.762","-0.599","0.45","-0.157","-0.088","N/A","N/A","-0.275","N/A",1,1,3,2,2,1,1,2,1,1,0,0,1,0
"Pajaro",36.9016509,-121.7417042,"0.051","-0.442","0.913","2.8","1.654","N/A","-1.53","-0.354","-0.157","-0.088","N/A","N/A","-0.309","N/A",2,1,3,4,4,0,1,1,1,1,0,0,1,0
"Pajaro Dunes",36.8682378,-121.805696,"-1.074","1.492","0.357","-1.472","-1.224","N/A","2.258","N/A","-0.157","-0.088","N/A","N/A","0.75","N/A",1,4,2,1,1,0,4,0,1,1,0,0,3,0
"Pala",33.3616553,-117.0695419,"-0.058","1.229","0.509","1.775","1.292","N/A","-0.244","N/A","-0.157","-0.088","N/A","N/A","N/A","N/A",1,4,3,4,4,0,1,0,1,1,0,0,0,0
"Paradise Park",37.0062975,-122.0424133,"-1.074","-0.125","0.495","-0.094","-1.448","N/A","0.394","N/A","-0.157","-0.088","N/A","N/A","-0.309","N/A",1,1,2,1,1,0,2,0,1,1,0,0,1,0
"Pasatiempo",37.0034208,-122.0265053,"-1.074","-0.02","-0.453","-1.164","-0.678","N/A","0.548","N/A","-0.157","-0.088","N/A","N/A","-0.309","N/A",1,1,1,1,1,0,3,0,1,1,0,0,1,0
"Penngrove",38.3005984,-122.6705664,"-0.188","-0.121","-0.471","-0.3","-0.028","N/A","-0.315","N/A","-0.157","-0.088","N/A","N/A","-0.309","N/A",1,1,1,1,1,0,1,0,1,1,0,0,1,0
"Pescadero",37.2448941,-122.378866,"-1.074","0.954","-0.445","0.102","-0.118","N/A","1.424","N/A","-0.157","-0.088","N/A","N/A","-0.248","N/A",1,3,1,2,1,0,4,0,1,1,0,0,1,0
"Phillipsville",40.2107035,-123.7812117,"-1.074","1.18","2.036","-0.423","2.312","N/A","-0.131","N/A","-0.157","-0.088","N/A","N/A","-0.309","N/A",1,4,4,1,4,0,1,0,1,1,0,0,1,0
"Philo",39.0657197,-123.4452174,"3.072","0.54","1.511","0.414","0.686","N/A","0.293","N/A","-0.157","-0.088","N/A","N/A","-0.309","N/A",4,3,4,2,3,0,2,0,1,1,0,0,1,0
"Pine Canyon",36.1720725,-121.1430132,"0.023","0","0.199","0.881","0.161","N/A","-0.02","N/A","-0.157","-0.088","N/A","N/A","-0.309","N/A",2,1,2,3,2,0,1,0,1,1,0,0,1,0
"Pine Hills",40.7329502,-124.161326,"0.756","0.395","0.023","0.2","0.281","0.311","0.7","-1.416","-0.157","-0.088","N/A","N/A","0.247","N/A",3,2,2,2,2,2,3,1,1,1,0,0,2,0
"Pine Valley",32.841513,-116.5107062,"-0.514","-0.142","-0.466","-0.484","-0.641","0.321","0.601","-0.093","-0.157","-0.088","N/A","N/A","-0.309","N/A",1,1,1,1,1,2,3,1,1,1,0,0,1,0
"Piru",34.4069212,-118.7995724,"0.483","-0.032","0.077","1.948","0.498","-1.071","-0.33","-0.056","-0.157","-0.088","N/A","N/A","-0.309","N/A",2,1,2,4,2,1,1,1,1,1,0,0,1,0
"Point Reyes Station",38.0846469,-122.8092262,"-0.48","1.716","1.58","-0.842","-0.331","N/A","1.847","-0.091","-0.157","-0.088","N/A","N/A","-0.042","N/A",1,4,4,1,1,0,4,1,1,1,0,0,1,0
